amount,lat_x,long_x,name_x,country_code_x
10896,52.52437,13.41053,Berlin,DE
6974,48.20849,16.37208,Vienna,AT
5491,48.85341,2.3488,Paris,FR
4722,50.9803,11.32903,Weimar,DE
4678,51.33962,12.37129,Leipzig,DE
4520,51.05089,13.73832,Dresden,DE
4401,51.53443,9.93228,Göttingen,DE
4149,49.94782,11.57893,Bayreuth,DE
3495,46.94809,7.44744,Bern,CH
3328,52.37052,9.73322,Hanover,DE
2913,47.06667,15.45,Graz,AT
2669,51.31667,9.5,Kassel,DE
2344,50.11552,8.68417,Frankfurt am Main,DE
1739,47.36667,8.55,Zurich,CH
1603,48.37154,10.89851,Augsburg,DE
1584,49.43083,11.08528,Nuremberg,DE
1527,50.08804,14.42076,Prague,CZ
1457,51.1,6.5,Jüchen,DE
1419,53.55073,9.99302,Hamburg,DE
1253,51.50853,-0.12574,London,GB
1233,48.13743,11.57549,Munich,DE
1160,50.31297,11.91261,Hof,DE
994,51.48158,11.97947,Halle,DE
913,46.36091,6.93272,Roche,CH
875,49.40768,8.69079,Heidelberg,DE
875,51.56016,12.99617,Torgau,DE
868,53.55,9.93333,Altona,DE
795,48.58392,7.74553,Strasbourg,FR
768,50.92878,11.5899,Jena,DE
741,46.516,6.63282,Lausanne,CH
735,49.23165,10.4642,Landkreis Ansbach,DE
732,54.70649,20.51095,Kaliningrad,RU
704,52.39886,13.06566,Potsdam,DE
699,52.26594,10.52673,Braunschweig,DE
660,49.45421,11.07752,Nuremberg,DE
646,51.10773,17.03533,Wrocław,PL
634,48.78232,9.17702,Stuttgart,DE
631,48.20769,16.37049,Inner city,AT
619,51.01815,11.42746,Oßmannstedt,DE
613,48.52266,9.05222,Tübingen,DE
600,59.93863,30.31413,St Petersburg,RU
599,46.20222,6.14569,Geneva,CH
586,45.41519,11.88181,Padova,IT
583,48.09345,9.79053,Biberach an der Riss,DE
564,49.3875,11.3572,Altdorf b.Nürnberg,DE
558,41.89193,12.51133,Rome,IT
557,49.98419,8.2791,Mainz,DE
538,50.80904,8.77069,Marburg,DE
512,50.56787,10.41521,Meiningen,DE
511,50.9787,11.03283,Erfurt,DE
509,47.55839,7.57327,Basel,CH
507,53.07582,8.80717,Bremen,DE
487,50.94823,10.70193,Gotha,DE
479,47.79941,13.04399,Salzburg,AT
472,49.87167,8.65027,Darmstadt,DE
462,50.77664,6.08342,Aachen,DE
457,49.01681,12.09536,Regensburg,DE
447,50.73438,7.09549,Bonn,DE
446,51.8661,12.64973,Wittenberg,DE
437,48.2066,16.37341,Vienna,AT
428,52.12773,11.62916,Magdeburg,DE
428,45.4389,12.33092,Venice,IT
413,48.2088,16.38409,Wien-Fluss,AT
409,55.67594,12.56553,Copenhagen,DK
386,51.1,17.03333,Wroclaw,PL
385,49.01513,12.10161,Regensburg,DE
383,49.4891,8.46694,Mannheim,DE
380,49.20307,10.65063,Triesdorf,DE
378,52.37403,4.88969,Amsterdam,NL
340,53.60194,10.15667,Rahlstedt,DE
325,51.73298,13.04729,Annaburg,DE
321,45.46427,9.18951,Milan,IT
320,47.38283,8.53071,Zurich,CH
315,47.55773,7.59361,Basel,CH
315,50.11035,8.67185,Frankfurt,DE
301,47.26266,11.39454,Innsbruck,AT
291,50.93376,10.72818,Seeberg Observatory (1787-1934),DE
289,51.04962,12.1369,Zeitz,DE
285,52.2279,11.00985,Helmstedt,DE
282,45.07049,7.68682,Turin,IT
280,54.35227,18.64912,Gdansk,PL
275,51.96236,7.62571,Münster,DE
268,50.98763,12.43684,Altenburg,DE
268,50.08333,14.46667,Hlavní město Praha,CZ
265,50.04422,10.22672,Schweinfurt,DE
257,49.5888,11.00977,Erlangen,DE
246,50.82567,15.52274,Szklarska Poręba,PL
241,52.16442,10.54095,Wolfenbüttel,DE
240,48.13307,16.25839,Rodaun,AT
239,51.20148,11.96843,Weißenfels,DE
238,50.25937,10.96384,Coburg,DE
235,49.5631,3.62714,Laon,FR
224,54.13244,21.68244,Sztynort,PL
221,46.26724,6.15561,Genthod,CH
217,49.63278,8.35916,Worms,DE
210,47.1237,7.27887,Brügg,CH
210,51.89562,11.05622,Halberstadt,DE
210,54.68916,25.2798,Vilnius,LT
204,51.9662,12.08517,Zerbst,DE
199,53.14118,8.21467,Oldenburg,DE
196,50.10061,8.76647,Offenbach,DE
195,50.85045,4.34878,Brussels,BE
194,52.57601,13.29389,Tegel,DE
184,49.79391,9.95121,Würzburg,DE
183,51.22172,6.77616,Düsseldorf,DE
180,48.8534,2.3486,Paris,FR
178,49.7822,9.94041,Kreisfreie Stadt Würzburg,DE
178,52.5,13.41667,Land Berlin,DE
177,47.98333,15.01667,Stiebar,AT
177,45.43713,12.33265,Venice,IT
172,48.2,16.3,Gemeindebezirk Penzing,AT
171,45.74846,4.84671,Lyon,FR
170,50.53348,14.1318,Litoměřice,CZ
169,52.15833,4.49306,Leiden,NL
169,51.23812,6.78678,Düsseldorf-Pempelfort,DE
164,50.93194,11.59056,Kreisfreie Stadt Jena,DE
162,50.91089,13.33881,Freiberg,DE
162,46.3181,6.96457,Aigle,CH
161,40.85216,14.26811,Naples,IT
161,43.77925,11.24626,Florence,IT
161,59.32938,18.06871,Stockholm,SE
159,44.49381,11.33875,Bologna,IT
157,53.2509,10.41409,Lüneburg,DE
155,49.8934,10.89115,Bamberg,DE
154,46.38318,6.23955,Nyon,CH
154,49.00937,8.40444,Karlsruhe,DE
152,47.9959,7.85222,Freiburg im Breisgau,DE
151,59.72333,30.41583,Tsarskoye Selo,RU
148,49.32083,8.43111,Speyer,DE
148,47.90289,1.90389,Orléans,FR
148,48.39841,9.99155,Ulm,DE
147,50.8357,12.92922,Chemnitz,DE
146,49.376,10.1795,Rothenburg ob der Tauber,DE
142,51.83976,16.33438,Osowa Sień,PL
142,53.86893,10.68729,Lübeck,DE
141,50.22269,11.93226,Schwarzenbach a.d.Saale,DE
141,47.04439,7.27578,Aarberg,CH
140,43.39028,-1.65972,Saint-Jean-de-Luz,FR
140,51.83864,12.24555,Dessau,DE
137,48.52961,12.16179,Landshut,DE
136,49.51033,11.27678,Lauf a.d.Pegnitz,DE
132,51.81666,12.6666,Landkreis Wittenberg,DE
130,43.61093,3.87635,Montpellier,FR
130,45.40797,11.88586,Padua,IT
129,51.16158,13.4737,Meissen,DE
125,50.25847,10.95787,Coburg,DE
124,49.61514,3.21857,Chauny,FR
123,51.12821,12.80295,Colditz,DE
123,49.19522,16.60796,Brno,CZ
121,48.00543,16.23264,Baden bei Wien,AT
121,48.5665,13.43122,Passau,DE
120,52.07667,4.29861,The Hague,NL
118,51.16651,6.5418,Liedberg,DE
118,49.97704,9.15214,A-Burg,DE
117,51.01419,6.27195,Rurich,DE
117,47.71109,13.61893,Bad Ischl,AT
114,51.14987,11.80979,Naumburg,DE
114,48.12863,9.79749,Warthausen,DE
114,47.60998,13.78243,Bad Aussee,AT
114,48.69059,10.38598,Trugenhofen,DE
114,47.14303,6.8922,La Ferrière,CH
113,46.63845,6.63525,Echallens,CH
113,51.5018,10.7957,Nordhausen,DE
112,50.93333,6.95,Cologne,DE
110,54.32133,10.13489,Kiel,DE
110,47.71843,10.31324,Kempten (Allgäu),DE
108,46.63639,14.14639,Pörtschach am Wörthersee,AT
106,54.12588,20.57954,Lidzbark Warmiński,PL
105,47.48096,8.20869,Brugg,CH
103,49.59099,11.00783,Erlangen,DE
103,52.26065,9.04939,Bückeburg,DE
103,51.35478,11.98923,Merseburg,DE
102,49.9461,11.57616,Bayreuth,DE
101,59.91273,10.74609,Oslo,NO
101,53.08333,8.83333,Bremen,DE
98,52.51486,13.40285,Alt-Kölln,DE
97,48.71804,10.7793,Donauwörth,DE
97,52.15274,4.4836,Gemeente Leiden,NL
97,50.9807,10.31522,Eisenach,DE
97,50.98278,11.0425,Kreisfreie Stadt Erfurt,DE
96,48.62219,10.24312,Giengen an der Brenz,DE
94,50.72724,12.48839,Zwickau,DE
93,52.504,13.352,Berlin,DE
93,52.45052,13.62463,Friedrichshagen,DE
92,51.20949,7.87261,Plettenberg,DE
91,51.01467,13.86595,Hosterwitz,DE
90,52.62264,10.08047,Celle,DE
89,50.94819,10.70212,Gotha,DE
88,48.19811,16.39482,Gemeindebezirk Landstrasse,AT
87,54.09311,13.38786,Greifswald,DE
87,46.62472,14.30528,Klagenfurt,AT
86,40.71427,-74.00597,New York,US
86,48.14816,17.10674,Bratislava,SK
86,48.89667,3.39643,Viels-Maisons,FR
85,38.71667,-9.13333,Lisbon,PT
83,41.90036,12.49575,Rome,IT
82,51.84172,12.42116,Wörlitz,DE
81,52.40416,13.0385,Sanssouci,DE
80,40.83333,14.25,Naples,IT
80,47.95285,2.78861,Conflans-sur-Loing,FR
79,53.14193,8.90338,Lilienthal,DE
79,22.785,5.52278,Tamanghasset,DZ
79,52.06866,4.28635,Gemeente Den Haag,NL
79,49.13995,9.22054,Heilbronn,DE
79,44.50657,11.35041,Bologna,IT
78,49.89873,10.90067,Bamberg,DE
76,56.9083,60.8019,Beryozovsky,RU
76,47.97281,2.77186,Amilly,FR
75,48.89745,11.17165,Eichstätt,DE
74,40.4165,-3.70256,Madrid,ES
74,50.39067,11.87329,Töpen,DE
74,48.30639,14.28611,Linz,AT
73,52.6,12.5,Nennhausen,DE
73,48.19625,16.32749,Gemeindebezirk Rudolfsheim-Fünfhaus,AT
73,49.11127,9.73908,Schwäbisch Hall,DE
72,47.42391,9.37477,Saint Gallen,CH
70,47.98257,10.17254,Memmingen,DE
70,52.51667,13.28333,Charlottenburg,DE
70,50.23271,12.87117,Karlovy Vary,CZ
70,43.31283,-1.97499,Donostia / San Sebastian,ES
67,47.80067,13.04532,Salzburg Stadt,AT
66,51.20896,10.45275,Mühlhausen,DE
66,54.14054,10.60751,Eutin,DE
66,46.48208,6.77805,Chexbres,CH
66,50.4265,10.7259,Hildburghausen,DE
63,47.88238,10.62192,Kaufbeuren,DE
63,55.75222,37.61556,Moscow,RU
63,46.06787,11.12108,Trento,IT
63,45.43419,10.99779,Verona,IT
61,52.34714,14.55062,Frankfurt (Oder),DE
60,49.30481,10.5931,Ansbach,DE
59,50.88029,12.08187,Gera,DE
59,51.04315,12.29935,Meuselwitz,DE
59,46.16308,-1.15222,La Rochelle,FR
58,51.45984,12.63338,Eilenburg,DE
58,53.42894,14.55302,Szczecin,PL
58,46.99179,6.931,Neuchâtel,CH
57,47.72139,8.62473,Schaffhausen,CH
56,46.94761,7.40645,Berne,CH
56,53.57368,7.89806,Jever,DE
56,39.95238,-75.16362,Philadelphia,US
56,52.03333,8.53333,Bielefeld,DE
56,49.65829,13.8178,Praha,CZ
56,47.7996,3.57033,Auxerre,FR
55,51.47831,11.96464,Glaucha,DE
55,48.84004,16.05908,Louka,CZ
55,43.29695,5.38107,Marseille,FR
55,51.05007,12.79754,Rochlitz,DE
53,49.4503,8.67472,Dossenheim,DE
52,49.68648,14.97449,Zdislavice,CZ
52,50.35357,7.57883,Koblenz,DE
51,50.82264,15.61655,Jagniątków,PL
51,50.36012,7.62013,Ehrenbreitstein,DE
50,46.77852,6.64115,Yverdon-les-Bains,CH
50,50.72136,10.44386,Schmalkalden,DE
50,47.50564,8.72413,Winterthur,CH
50,53.59337,9.47629,Stade,DE
49,48.7606,8.23975,Baden-Baden,DE
49,49.33211,11.03016,Schwabach,DE
49,52.58713,14.64953,Kostrzyn nad Odrą,PL
47,51.10771,10.646,Bad Langensalza,DE
47,51.36973,10.87011,Sondershausen,DE
47,47.32067,7.89986,Aarburg,CH
47,53.86893,10.68729,"Lübeck, Hansestadt",DE
47,52.27264,8.0498,Osnabrück,DE
47,48.76508,11.42372,Ingolstadt,DE
47,50.59465,12.64139,Schneeberg,DE
47,54.0887,12.14049,Rostock,DE
47,50.58727,8.67554,Giessen,DE
47,50.57864,13.00507,Annaberg,DE
46,52.15077,9.95112,Hildesheim,DE
46,47.98372,10.18527,Memmingen,DE
46,49.47055,10.99713,Fürth,DE
46,51.75222,-1.25596,Oxford,GB
46,48.89198,2.20675,Nanterre,FR
46,50.86079,17.4674,Brzeg,PL
45,51.18035,14.43494,Bautzen,DE
45,47.76667,13.36667,Saint Gilgen,AT
45,52.22977,21.01178,Warsaw,PL
45,48.40351,11.74876,Freising,DE
45,48.15389,11.54806,"Munich, Urban District",DE
45,45.83362,1.24759,Limoges,FR
45,30.06041,31.23147,Būlāq Abū al ‘Ilā,EG
44,50.33544,7.71369,Bad Ems,DE
44,47.2,12.85,Bad Fusch,AT
44,59.85882,17.63889,Uppsala,SE
44,51.0833,13.7666,Kreisfreie Stadt Dresden,DE
43,48.80359,2.13424,Versailles,FR
43,50.24921,12.03422,Rehau-Pilgramsreuth,DE
43,51.23367,12.71959,Grimma,DE
43,52.15,11.63333,Neue Neustadt,DE
42,52.14167,11.64444,Landeshauptstadt Magdeburg,DE
41,50.06143,19.93658,Krakow,PL
41,51.11112,13.91199,Radeberg,DE
41,49.5802,10.6091,Neustadt a.d.Aisch,DE
41,46.46299,6.84345,Vevey,CH
41,46.55178,9.32217,Splügen,CH
41,52.46667,13.4,Tempelhof,DE
40,51.0073,13.87565,Pillnitz,DE
40,47.68333,17.63512,Győr,HU
40,47.13713,7.24608,Biel/Bienne,CH
39,45.64953,13.77678,Trieste,IT
39,50.08258,8.24932,Wiesbaden,DE
38,45.4299,10.98444,Verona,IT
38,52.3965,13.0899,Nowawes,DE
38,52.09083,5.12222,Utrecht,NL
38,48.13452,11.571,Munich,DE
38,43.49316,-1.473,Bayonne,FR
38,48.85122,10.48868,Nördlingen,DE
38,48.77888,2.31781,Bourg-la-Reine,FR
38,58.38062,26.72509,Tartu,EE
37,48.9448,10.5948,Oettingen i.Bay.,DE
37,47.64224,15.8241,Semmering,AT
37,51.48648,11.96366,Moritzburg,DE
36,49.65,11.25,Gräfenberg,DE
36,51.90668,11.77478,Calbe,DE
36,49.83826,24.02324,Lviv,UA
35,47.49835,19.04045,Budapest,HU
35,42.35843,-71.05977,Boston,US
35,50.6404,13.82451,Teplice,CZ
35,46.20576,6.14161,Geneva,CH
35,39.57622,16.63447,Rossano,IT
35,59.88333,29.9,Petergof,RU
35,38.89511,-77.03637,Washington,US
34,50.13423,8.91418,Hanau,DE
34,47.6926,10.03857,Isny,DE
34,52.3475,14.5539,Frankfurt (Oder),DE
34,46.10276,7.07245,Martigny-Ville,CH
33,51.15518,14.98853,Görlitz,DE
33,51.78843,11.15006,Quedlinburg,DE
33,47.41667,15.28333,Bruck an der Mur,AT
33,47.50957,6.79823,Montbéliard,FR
33,51.90425,10.42766,Goslar,DE
33,51.52754,11.54835,Eisleben Lutherstadt,DE
33,51.8667,10.0333,Bad Gandersheim,DE
33,53.62937,11.41316,Schwerin,DE
33,47.11547,13.13467,Bad Gastein,AT
33,44.05755,12.56528,Rimini,IT
33,46.91337,7.09397,Greng,CH
33,41.38879,2.15899,Barcelona,ES
33,51.56333,3.49583,Domburg,NL
33,54.52156,9.5586,Schleswig,DE
33,51.9225,4.47917,Rotterdam,NL
32,50.89973,15.72899,Jelenia Góra,PL
32,53.65345,11.17582,Lützow,DE
32,49.96459,12.70118,Mariánské Lázně,CZ
32,50.91522,9.23754,Ziegenhain,DE
32,52.47517,13.29071,Schmargendorf,DE
32,46.69724,9.43938,Thusis,CH
31,49.96167,8.22778,Mainz-Marienborn,DE
31,49.1678,10.3312,Feuchtwangen,DE
31,50.58485,8.67417,"Gießen, Universitätsstadt",DE
31,45.19205,9.15917,Pavia,IT
31,31.22222,121.45806,Shanghai,CN
31,43.70853,10.4036,Pisa,IT
31,41.14961,-8.61099,Porto,PT
31,51.98589,9.25246,Bad Pyrmont,DE
31,43.31267,-1.58023,Sare,FR
31,46.33939,9.55759,Promontogno,CH
31,49.50812,11.43173,Hersbruck,DE
31,47.05048,8.30635,Lucerne,CH
30,51.04901,14.07943,Stolpen,DE
30,52.41667,12.55,Brandenburg,DE
30,46.84986,9.53287,Chur,CH
30,50.04937,10.22175,Schweinfurt,DE
30,48.88854,11.19675,Eichstätt,DE
30,40.69149,-73.80569,Jamaica,US
30,44.83804,11.62057,Ferrara,IT
30,46.66758,6.79781,Moudon,CH
30,47.63347,15.82993,Semmering,AT
30,55.95206,-3.19648,Edinburgh,GB
29,50.92957,10.9795,Bischleben-Stedten,DE
29,60.3311,11.26264,Eidsvoll,NO
29,49.36672,19.18093,Oravská Lesná,SK
29,41.01384,28.94966,Istanbul,TR
29,48.60663,7.78606,La Robertsau,FR
29,50.56109,8.50495,Wetzlar,DE
28,49.04018,9.09386,Bönnigheim,DE
28,51.8883,11.0572,Halberstadt,DE
28,47.77908,8.42703,Schwaningen,DE
28,51.93855,8.87318,Detmold,DE
28,55.78874,49.12214,Kazan’,RU
28,50.55162,9.67518,Fulda,DE
28,-20.16194,57.49889,Port Louis,MU
27,51.79901,4.74159,Gemeente Dordrecht,NL
27,43.81725,7.7772,Sanremo,IT
27,61.87565,9.09572,Vågå,NO
27,46.67587,7.63972,Wimmis,CH
27,53.01375,18.59814,Torun,PL
27,49.50075,10.40765,Bad Windsheim,DE
27,51.80441,10.33384,Clausthal,DE
27,50.68322,10.91858,Ilmenau,DE
26,51.3707,12.73939,Wurzen,DE
26,50.86422,16.77285,Kwięcinice Małe,PL
26,50.07963,12.37392,Cheb,CZ
26,53.15,10.88333,Göhrde,DE
26,43.26271,-2.92528,Bilbao,ES
26,48.1,16.3,Sankt Gabriel,AT
26,53.29657,9.27685,Zeven,DE
26,46.24965,7.0098,Bex,CH
25,50.6002,12.6264,Schneeberg,DE
25,54.21567,21.7372,Węgorzewo,PL
25,48.89731,9.19161,Ludwigsburg,DE
25,48.2082,16.37169,Vienna,AT
25,52.92343,9.23491,Verden an der Aller,DE
25,51.05798,13.29652,Nossen,DE
24,51.47221,11.29533,Sangerhausen,DE
24,54.1522,19.40884,Elblag,PL
24,50.65051,13.16122,Marienberg,DE
24,50.12033,12.35174,Františkovy Lázně,CZ
24,50.72556,1.61389,Boulogne-sur-Mer,FR
23,50.64826,11.36536,Saalfeld,DE
23,49.82279,14.62428,Bukovany,CZ
23,48.10365,2.77542,Fontenay-sur-Loing,FR
23,37.38283,-5.97317,Seville,ES
23,50.84048,10.95198,Arnstadt,DE
23,50.77449,12.06028,Weida,DE
23,47.96337,6.45758,Plombières-les-Bains,FR
23,44.40478,8.94439,Genoa,IT
23,50.94161,6.95864,"Cologne, Urban District",DE
23,51.59234,11.45223,Mansfeld,DE
22,51.11644,9.6627,Spangenberg,DE
22,48.55347,10.37223,Gundelfingen,DE
22,52.00462,11.72531,Salzelmen,DE
22,55.4904,9.47216,Kolding,DK
22,46.75118,7.62166,Thun,CH
22,48.8555,16.0488,Znojmo,CZ
21,51.68692,13.22016,Herzberg,DE
21,50.72043,11.34046,Rudolstadt,DE
21,50.67794,1.63084,Saint-Étienne-au-Mont,FR
21,50.65552,13.07132,Wolkenstein,DE
21,49.4454,11.8586,Amberg,DE
21,51.15922,13.68021,Moritzburg,DE
21,53.58334,10.08305,Wandsbek,DE
21,51.70662,9.99997,Northeim,DE
21,4.60971,-74.08175,Bogotá,CO
21,47.23333,12.81667,Fusch an der Grossglocknerstrasse,AT
21,10.45397,-64.18256,Cumaná,VE
20,41.03694,28.9775,Beyoğlu,TR
20,50.74792,5.13422,Gingelom,BE
20,54.11833,12.12528,Kreisfreie Stadt Rostock,DE
20,49.3587,3.29405,Vauxbuin,FR
20,50.35846,12.93465,Jáchymov,CZ
20,47.6698,13.78453,Altaussee,AT
20,46.80418,7.15974,Fribourg,CH
20,30.06263,31.24967,Cairo,EG
20,52.4679,9.46121,Poggenhagen,DE
20,50.88333,9.86667,Friedewald,DE
20,51.40379,11.38689,Allstedt,DE
20,56.946,24.10589,Riga,LV
20,26.0112,-80.14949,Hollywood,US
19,39.29038,-76.61219,Baltimore,US
19,51.22047,4.40026,Antwerp,BE
19,49.0667,10.9667,Ellingen,DE
19,51.35274,7.87657,Sanssouci,DE
19,47.70624,11.41522,Benediktbeuern,DE
19,50.9686,11.90207,Eisenberg,DE
19,46.17086,8.79953,Locarno,CH
19,51.06589,13.18308,Roßwein,DE
19,39.5166,15.94158,Cetraro,IT
19,46.68473,7.69111,Spiez,CH
19,51.30001,13.10984,Oschatz,DE
19,44.82678,11.62071,Ferrara,IT
19,46.94991,6.83757,Boudry,CH
19,43.48055,-1.55684,Biarritz,FR
18,51.2663,4.37077,Antwerpen,BE
18,46.55472,15.64667,Maribor,SI
18,45.08268,13.63457,Rovinj,HR
18,44.39071,7.54828,Cuneo,IT
18,52.04953,9.25856,Aerzen,DE
18,49.57953,10.61126,Neustadt an der Aisch,DE
18,46.5369,12.13903,Cortina d'Ampezzo,IT
18,54.64573,20.72953,Kamenka,RU
18,47.68501,16.59049,Sopron,HU
18,51.16715,12.25144,Pegau,DE
18,48.57318,13.4506,Passau,DE
18,53.38333,9.0,Gnarrenburg,DE
18,46.92436,7.41457,Köniz,CH
18,47.57765,9.69199,Lindau (Bodensee),DE
18,50.76192,9.28235,Alsfeld,DE
18,49.13444,10.07193,Crailsheim,DE
18,51.99607,13.07979,Jüterbog,DE
18,48.08611,16.24809,Hinterbrühl,AT
17,51.75185,11.97093,Köthen,DE
17,49.25969,11.14571,Roth,DE
17,51.72686,10.25089,Osterode am Harz,DE
17,50.99198,11.35027,Tiefurt,DE
17,48.73961,9.30473,Esslingen am Neckar,DE
17,53.93171,11.71365,Teplitz,DE
17,51.06006,13.27453,Zella,DE
17,54.59222,22.19972,Gusev,RU
17,40.82747,-7.79816,Viseu,PT
17,53.48095,-2.23743,Manchester,GB
17,47.98288,3.40096,Joigny,FR
17,-6.21462,106.84513,Jakarta,ID
17,43.84369,10.50447,Lucca,IT
17,48.86223,1.34329,Bois-le-Roi,FR
17,47.33996,8.66778,Maur,CH
17,48.44858,18.91003,Banská Štiavnica,SK
17,47.39484,0.70398,Tours,FR
17,51.87167,10.02537,Bad Gandersheim,DE
16,49.19884,9.5072,Öhringen,DE
16,50.09501,12.22008,Hohenberg an der Eger,DE
16,54.18192,7.89645,Helgoland,DE
16,51.25083,7.14816,Elberfeld,DE
16,49.11911,6.17269,Metz,FR
16,29.9,31.2,Abusir,EG
16,51.5757,10.78469,Ilfeld,DE
16,48.35149,8.96317,Hechingen,DE
16,53.80908,8.90068,Otterndorf,DE
16,46.01008,8.96004,Lugano,CH
16,46.61028,13.85583,Villach,AT
16,51.54508,9.53605,Sababurg,DE
16,45.8,24.15,Sibiu,RO
16,48.45704,14.34875,Reichenau im Mühlkreis,AT
16,46.72504,6.53069,Orbe,CH
16,47.7,10.86667,Steingaden,DE
16,46.35979,6.92523,Roche (VD),CH
16,49.50126,11.74598,Sulzbach-Rosenberg,DE
16,51.56878,12.84838,Weidenhain,DE
16,48.78333,11.23333,Egweil,DE
16,50.08058,11.13434,Lahm,DE
16,55.39594,10.38831,Odense,DK
16,46.73901,11.63749,Vahrn,IT
16,50.94861,11.34815,Schloss Belvedere,DE
16,52.97945,13.74493,Joachimsthal,DE
15,50.30833,11.90694,Kreisfreie Stadt Hof,DE
15,51.05386,13.81393,Loschwitz,DE
15,47.58559,8.06741,Laufenburg (Baden),DE
15,55.31274,10.78964,Nyborg,DK
15,47.33693,9.66319,Götzis,AT
15,51.23333,12.55,Belgershain,DE
15,48.68439,6.18496,Nancy,FR
15,50.86545,15.68367,Cieplice Śląskie Zdrój,PL
15,49.24686,7.36977,Zweibrücken,DE
15,50.36648,11.64438,Bad Steben,DE
15,50.74818,13.07691,Zschopau,DE
15,45.81667,8.93333,Valmorea,IT
15,49.1147,10.7542,Gunzenhausen,DE
15,48.8024,2.29346,Châtillon,FR
15,51.27688,13.6284,Kalkreuth,DE
15,46.49937,9.84327,Saint Moritz,CH
15,52.50462,9.45871,Neustadt am Rübenberge,DE
15,50.37069,3.07922,Douai,FR
15,47.71667,13.48333,Strobl,AT
15,51.52444,7.47389,Kreisfreie Stadt Dortmund,DE
15,53.88026,15.93584,Rabinko,PL
14,47.5,19.03333,Buda,HU
14,48.29045,25.93241,Chernivtsi,UA
14,47.63844,13.76278,Altaussee,AT
14,50.33868,10.38625,Waltershausen,DE
14,49.13288,6.2024,Saint-Julien-lès-Metz,FR
14,50.0374,11.9994,Wunsiedel,DE
14,50.84717,14.06005,Rosenthal,DE
14,51.14349,11.75254,Schulpforte,DE
14,51.51297,9.95353,Göttingen,DE
14,38.13205,13.33561,Palermo,IT
14,50.20228,10.07784,Bad Kissingen,DE
14,48.25,16.4,Floridsdorf,AT
14,54.35766,19.68029,Frombork,PL
14,46.18815,6.19904,Thônex,CH
14,55.47062,9.09746,Askov,DK
14,46.20574,5.2258,Bourg-en-Bresse,FR
14,51.82018,9.86961,Einbeck,DE
14,51.65717,12.93831,Lichtenburg,DE
14,50.108,11.464,Plassenburg,DE
14,50.95843,13.93702,Pirna,DE
14,47.31805,8.58401,Küsnacht,CH
14,47.95514,8.49707,Donaueschingen,DE
13,50.58019,12.80695,Grünhain,DE
13,49.0283,10.97448,Weißenburg i.Bay.,DE
13,47.69732,8.63493,Schaffhausen,CH
13,50.4973,12.13782,Plauen,DE
13,50.87197,9.70891,Bad Hersfeld,DE
13,50.7,10.2167,Roßdorf,DE
13,54.32054,10.1327,"Kiel, Landeshauptstadt",DE
13,49.33047,11.02346,Schwabach,DE
13,46.66817,11.15953,Meran,IT
13,44.64783,10.92539,Modena,IT
13,49.4925,9.77361,Bad Mergentheim,DE
13,48.35164,13.64991,Raab,AT
13,49.82245,19.04686,Bielsko-Biala,PL
13,46.68387,7.86638,Interlaken,CH
13,51.33645,6.55381,Krefeld,DE
13,46.49067,11.33982,Bolzano,IT
13,50.78314,16.03037,Kamienna Góra,PL
13,46.71503,11.65598,Brixen,IT
13,50.84378,16.48859,Swidnica,PL
13,53.33672,15.0499,Stargard,PL
13,53.33306,-6.24889,Dublin,IE
13,52.26616,12.28997,Ziesar,DE
13,51.15,12.98333,Klosterbuch,DE
13,50.89772,14.80764,Zittau,DE
13,50.96605,10.30646,Wartburg Castle,DE
13,51.80949,10.33821,Clausthal-Zellerfeld,DE
13,32.75,129.88333,Nagasaki,JP
13,51.61667,11.51667,Burggörner,DE
13,50.57953,13.00627,Annaberg-Buchholz,DE
13,53.18546,5.54123,Franeker,NL
13,47.78198,9.61062,Ravensburg,DE
12,51.59651,11.9533,Petersberg,DE
12,5.84206,-55.17632,Oldenburg,SR
12,52.09675,5.03708,Gemeente Utrecht,NL
12,51.34217,11.34028,Kalbsrieth,DE
12,51.47785,-0.01176,Greenwich,GB
12,38.78394,-90.48123,Saint Charles,US
12,50.48438,8.26249,Weilburg,DE
12,59.48477,8.63017,Seljord,NO
12,47.76252,8.12714,Saint Blasien,DE
12,62.31104,10.52835,Savalen,NO
12,50.38287,5.00322,Corioule,BE
12,54.78624,9.43064,Flensburg,DE
12,53.71535,7.24042,Norderney,DE
12,47.96533,16.21359,Bad Vöslau,AT
12,51.43453,13.22177,Mühlberg,DE
12,52.28953,8.91455,Minden,DE
12,49.52083,3.32381,Coucy-le-Château-Auffrique,FR
12,50.93463,6.97495,Deutz,DE
12,48.77644,2.29026,Sceaux,FR
12,47.69255,15.80915,Edlach an der Rax,AT
12,47.24878,6.01815,Besançon,FR
12,52.2,0.11667,Cambridge,GB
12,51.89797,-8.47061,Cork,IE
12,48.67798,10.15162,Heidenheim,DE
12,50.9078,14.8011,Zittau,DE
12,49.38167,3.32361,Soissons,FR
12,45.33658,14.30782,Opatija,HR
12,51.66361,16.0845,Głogów,PL
12,50.01086,11.6875,Goldkronach,DE
12,50.99556,9.72838,Rotenburg an der Fulda,DE
12,43.70313,7.26608,Nice,FR
12,55.6711,12.56529,Copenhagen,DK
12,51.8,10.61667,Brockenhaus,DE
12,46.17323,8.80219,Muralto,CH
12,49.37885,10.18711,Rothenburg upon Tauber,DE
12,53.31625,13.86261,Prenzlau,DE
12,48.21026,12.06017,Kloster Sankt Zeno,DE
12,48.85339,2.34864,Paris,FR
12,47.89426,10.6319,Kaufbeuren,DE
12,47.54612,9.68431,Lindau,DE
12,49.4573,10.85329,Cadolzburg,DE
11,47.57143,10.70171,Füssen,DE
11,47.29891,9.57862,Meiningen,AT
11,40.6501,-73.94958,Brooklyn,US
11,51.51826,13.39459,Bad Liebenwerda,DE
11,51.14406,9.46432,Karthause,DE
11,54.78431,9.43961,Flensburg,DE
11,43.83665,4.35788,Nîmes,FR
11,46.89868,7.5446,Rubigen,CH
11,47.08333,2.4,Bourges,FR
11,50.052,12.1801,Arzberg,DE
11,51.6669,6.62037,Wesel,DE
11,47.3765,15.09144,Leoben,AT
11,46.54245,24.55747,Târgu Mureş,RO
11,52.18604,9.07917,Rinteln,DE
11,51.38333,8.08333,Arnsberg,DE
11,51.02574,4.47762,Mechelen,BE
11,52.17848,8.65597,Oberbehme,DE
11,43.09606,-1.42588,Aldudes,FR
11,52.42377,9.43585,Wunstorf,DE
11,43.71084,10.4137,Pisa,IT
11,52.92815,12.80311,Neuruppin,DE
11,51.77837,11.57724,Warmsdorf,DE
11,48.58153,10.49527,Dillingen an der Donau,DE
11,45.53558,10.21472,Brescia,IT
11,44.3496,9.22796,Rapallo,IT
11,47.39254,8.04422,Aarau,CH
11,51.48755,-0.16936,Chelsea,GB
11,52.38084,4.63683,Haarlem,NL
11,48.1866,2.49702,Bromeilles,FR
11,48.92783,10.9662,Pappenheim,DE
11,-20.88231,55.4504,Saint-Denis,RE
11,49.7361,10.15984,Kitzingen,DE
11,46.92827,7.11715,Murten/Morat,CH
11,51.15743,12.9279,Leisnig,DE
11,49.44313,1.09932,Rouen,FR
11,51.09307,16.31367,Mierczyce,PL
11,51.15949,13.88094,Seifersdorf,DE
11,48.88436,8.69892,Pforzheim,DE
11,47.63236,13.00187,Berchtesgaden,DE
10,53.46919,7.48232,Aurich,DE
10,43.50891,16.43915,Split,HR
10,46.83649,13.52346,Seeboden,AT
10,45.8896,11.03868,Rovereto,IT
10,53.3613,13.07292,Neustrelitz,DE
10,51.14027,10.63656,Thamsbrück,DE
10,52.56926,13.40186,Pankow,DE
10,43.37135,-8.396,A Coruña,ES
10,46.05108,14.50513,Ljubljana,SI
10,49.9,2.3,Amiens,FR
10,51.9092,9.85498,Ammensen,DE
10,52.09907,9.46369,Diedersen,DE
10,50.45466,30.5238,Kyiv,UA
10,52.05492,15.09882,Krosno Odrzańskie,PL
10,50.21953,11.06838,Ebersdorf b.Coburg,DE
10,51.83652,10.78216,Wernigerode,DE
10,54.21416,21.52282,Srokowo,PL
10,52.01682,11.7307,Schönebeck,DE
10,49.61167,6.13,Luxembourg,LU
10,49.51861,6.10278,Bettembourg,LU
10,50.34891,9.52532,Schlüchtern,DE
10,51.41505,9.65046,Hannoversch Münden,DE
10,49.63781,11.35584,Großengsee,DE
10,55.86515,-4.25763,Glasgow,GB
10,51.21362,11.76804,Freyburg,DE
10,50.09322,8.10312,Schlangenbad,DE
10,47.66033,9.17582,Konstanz,DE
10,50.97991,14.11408,Hohnstein,DE
10,50.14196,8.06964,Bad Schwalbach,DE
10,47.12545,7.24033,Nidau,CH
10,50.22683,8.61816,Bad Homburg,DE
10,52.42452,10.7815,Wolfsburg,DE
10,51.11742,6.64879,Langwaden,DE
10,51.23748,12.6121,Pomssen,DE
10,50.8912,12.24874,Löbichau,DE
10,54.1283,21.58697,Radzieje,PL
10,49.96115,12.72872,Výhledy [Mariánské Lázně-Úšovice],CZ
10,37.49223,15.07041,Catania,IT
10,50.68135,8.30369,Herborn,DE
10,49.3413,10.7966,Heilsbronn,DE
10,51.59174,12.58492,Bad Düben,DE
10,54.05275,13.77201,Wolgast,DE
10,46.80237,7.15128,Fribourg,CH
10,51.71905,8.75439,Paderborn,DE
10,46.51217,9.85794,Celerina,CH
10,48.21667,16.4,Leopoldstadt,AT
9,48.99839,21.23393,Prešov,SK
9,47.44299,8.67362,Lindau,CH
9,51.19954,9.71857,Hessisch Lichtenau,DE
9,47.46667,10.71667,Ehrenberger Klause,AT
9,48.73218,11.18709,Neuburg an der Donau,DE
9,49.14872,17.09774,Nové Zámky,CZ
9,49.29175,21.27271,Bardejov,SK
9,51.28951,13.5335,Großenhain,DE
9,54.03591,19.0266,Malbork,PL
9,47.38946,8.48533,Zürich (Kreis 9) / Altstetten,CH
9,45.03333,6.83333,Abbazia,IT
9,51.13029,9.55236,Melsungen,DE
9,49.81214,9.86962,Zell am Main,DE
9,51.36739,16.46001,Dziewin,PL
9,54.36013,21.30597,Zheleznodorozhnyy,RU
9,47.91839,13.79933,Gmunden,AT
9,49.35994,6.16044,Thionville,FR
9,42.69764,2.89541,Perpignan,FR
9,52.40692,16.92993,Poznan,PL
9,50.9437,14.23894,Lichtenhain,DE
9,48.71419,8.74031,Calw,DE
9,49.82264,13.05853,Trpísty,CZ
9,51.75769,14.32888,Cottbus,DE
9,43.94834,4.80892,Avignon,FR
9,47.61667,13.78333,Obertressen,AT
9,50.71341,9.2201,Romrod,DE
9,50.16214,11.84349,Sparneck,DE
9,54.9079,8.30326,Westerland,DE
9,50.87481,8.02431,Siegen,DE
9,49.26526,4.02853,Reims,FR
9,51.05528,12.69674,Geithain,DE
9,49.39746,12.48916,Auf der Öd,DE
9,47.18333,15.31667,Kleinstübing,AT
9,45.82058,8.82511,Varese,IT
9,47.81073,11.13413,Polling,DE
9,53.91264,21.58387,Ławki,PL
9,-33.45694,-70.64827,Santiago,CL
9,36.73225,3.08746,Algiers,DZ
9,51.78826,6.13865,Kleve,DE
9,46.75774,12.10556,Welsberg-Taisten,IT
9,51.02994,9.40261,Homberg (Efze),DE
9,50.63373,5.56749,Liège,BE
9,51.05,13.75,Dresden,DE
9,47.5,19.08333,Pest,HU
9,53.7972,12.17337,Güstrow,DE
9,51.96711,11.88261,Barby,DE
9,50.89014,15.19036,Lázně Libverda,CZ
9,50.59163,5.44167,Chokier,BE
9,49.96694,9.14778,Kreisfreie Stadt Aschaffenburg,DE
9,63.79332,11.4817,Verdal,NO
9,51.16408,13.84285,Grünberg,DE
9,48.40908,2.70177,Fontainebleau,FR
9,49.44287,11.86267,Amberg,DE
9,51.85837,8.28386,Rheda,DE
8,55.8225,12.57324,Skodsborg,DK
8,49.62472,9.66278,Tauberbischofsheim,DE
8,47.08257,10.22347,St. Anton am Arlberg,AT
8,48.8637,2.2769,Paris 16 Passy,FR
8,50.49431,12.59978,Eibenstock,DE
8,58.1376,7.07002,Lyngdal,NO
8,51.43247,6.76516,Duisburg,DE
8,50.98525,13.58035,Tharandt,DE
8,44.80401,20.46513,Belgrade,RS
8,51.4991,9.76179,Dransfeld,DE
8,47.21725,-1.55336,Nantes,FR
8,46.6992,13.98892,Steindorf am Ossiacher See,AT
8,50.94572,10.70446,Friedenstein Castle,DE
8,48.22999,8.3424,Lauterbach/Schwarzwald,DE
8,49.75565,6.63935,Trier,DE
8,49.35357,9.15106,Mosbach,DE
8,48.54555,13.21835,"Ortenburg, Markt",DE
8,46.54133,11.55868,Siusi,IT
8,50.81569,10.35123,Bad Liebenstein,DE
8,42.64125,18.10909,Dubrovnik,HR
8,47.49193,8.55371,Winkel,CH
8,47.06667,15.43333,Graz Stadt,AT
8,23.13302,-82.38304,Havana,CU
8,44.9994,7.68236,Moncalieri,IT
8,52.42,13.75437,Erkner,DE
8,52.90678,13.53104,Groß Schönebeck,DE
8,50.97443,10.33407,Eisenach,DE
8,45.81444,15.97798,Zagreb,HR
8,50.12542,8.6089,Rödelheim,DE
8,52.14184,12.59272,Bad Belzig,DE
8,49.59552,17.25175,Olomouc,CZ
8,55.94973,-3.19333,Edinburgh,GB
8,51.79464,11.7401,Bernburg,DE
8,48.84893,17.13244,Hodonín,CZ
8,48.15221,11.61585,Bogenhausen,DE
8,51.01912,12.57475,Gnandstein,DE
8,47.6066,15.67226,Mürzzuschlag,AT
8,51.81846,10.33532,Zellerfeld,DE
8,41.8091,12.67942,Frascati,IT
8,53.28898,-3.29868,Whitford,GB
8,52.5511,13.19921,Spandau,DE
8,50.97456,11.02974,Erfurt,DE
8,52.13802,10.96745,Schöningen,DE
8,52.41854,10.71631,Fallersleben,DE
8,51.38124,11.60047,Querfurt,DE
8,43.69039,10.51691,San Casciano,IT
8,51.46788,9.98692,Reinhausen,DE
8,46.49272,11.33358,Bolzano/Bozen,IT
8,50.90265,17.83751,Pokój,PL
8,53.55487,10.05742,Hamm,DE
8,49.89738,8.84613,Dieburg,DE
8,49.65007,22.22302,Końskie,PL
8,47.20791,7.53714,Solothurn,CH
8,50.48375,5.86674,Spa,BE
8,-12.04318,-77.02824,Lima,PE
8,54.18213,7.88458,Heligoland,DE
8,52.57017,9.02423,Steyerberg,DE
8,40.81563,14.33716,Portici,IT
8,49.01701,25.79808,Chortkiv,UA
8,50.81192,13.10197,Augustusburg,DE
8,50.84833,5.68889,Maastricht,NL
8,48.54252,16.76136,Zistersdorf,AT
8,54.63345,21.81557,Chernyakhovsk,RU
8,49.15964,5.3829,Verdun,FR
8,52.24856,11.62945,Wolmirstedt,DE
8,43.60426,1.44367,Toulouse,FR
8,44.49218,11.40295,Croce del Biacco,IT
8,19.07283,72.88261,Mumbai,IN
8,52.7873,14.0304,Bad Freienwalde,DE
8,42.81687,-1.64323,Pamplona,ES
8,52.03243,10.89157,Dedeleben,DE
8,47.64252,13.61609,Bad Goisern am Hallstättersee,AT
7,49.83465,18.28204,Ostrava,CZ
7,48.80537,9.52721,Schorndorf,DE
7,53.22698,8.79528,Osterholz-Scharmbeck,DE
7,53.39693,8.13621,Varel,DE
7,51.44371,12.9701,Sitzenroda,DE
7,48.49107,9.40009,Bad Urach,DE
7,47.32306,5.04194,Dijon,FR
7,47.72458,11.33295,Sindelsdorf,DE
7,49.51313,9.68805,Unterschüpf,DE
7,49.28028,11.46278,Neumarkt in der Oberpfalz,DE
7,53.56414,13.27532,Neubrandenburg,DE
7,48.73946,19.15349,Banská Bystrica,SK
7,56.8519,60.6122,Yekaterinburg,RU
7,41.77583,140.73667,Hakodate,JP
7,48.58383,11.08762,Pöttmes,DE
7,51.57426,10.95582,Stolberg,DE
7,37.85358,15.28851,Taormina,IT
7,51.1907,12.52696,Trages,DE
7,43.06497,0.14876,Bagnères-de-Bigorre,FR
7,47.66186,8.88674,Öhningen,DE
7,49.89611,10.72581,Trabelsdorf,DE
7,50.53791,12.78522,Schwarzenberg,DE
7,52.46877,12.87649,Paretz,DE
7,20.71405,70.98224,Diu,IN
7,51.14125,11.82975,Naumburg (Saale),DE
7,50.55925,10.38759,Dreißigacker,DE
7,47.7,15.83333,Reichenau an der Rax,AT
7,48.11646,16.19956,Kaltenleutgeben,AT
7,46.91472,7.52439,Allmendingen,CH
7,52.67617,14.15777,Kunersdorf,DE
7,51.05,13.01667,Kriebstein,DE
7,47.49209,11.09576,Garmisch-Partenkirchen,DE
7,46.93857,11.44245,Colle Isarco,IT
7,49.12426,8.59804,Bruchsal,DE
7,46.8083,0.62336,Saint-Sauveur,FR
7,48.62423,9.82736,Geislingen an der Steige,DE
7,48.22737,15.33186,Melk,AT
7,52.94236,9.31811,Kirchlinteln,DE
7,50.80651,11.58516,Kahla,DE
7,14.93152,-23.51254,Praia,CV
7,48.65953,2.30002,Villiers-sur-Orge,FR
7,46.37943,7.62687,Leukerbad,CH
7,49.759,9.50852,Wertheim am Main,DE
7,-34.61315,-58.37723,Buenos Aires,AR
7,-34.90328,-56.18816,Montevideo,UY
7,29.85,31.21667,Saqqara,EG
7,52.10397,9.35623,Hamelin,DE
7,50.91743,14.15494,Bad Schandau,DE
7,47.72947,12.87819,Bad Reichenhall,DE
7,48.22533,12.67665,Altötting,DE
7,48.25,16.33306,Gemeindebezirk Döbling,AT
7,10.48801,-66.87919,Caracas,VE
7,47.24339,7.20607,Saicourt,CH
7,47.40782,9.46498,Trogen,CH
7,46.90075,9.5612,Trimmis,CH
7,47.90219,13.76415,Altmünster,AT
7,46.76667,23.6,Cluj-Napoca,RO
7,50.09019,8.4493,Hofheim am Taunus,DE
7,46.69833,14.00917,Steindorf am Ossiacher See,AT
7,47.75205,7.32866,Mulhouse,FR
7,37.87159,-122.27275,Berkeley,US
7,51.45657,7.01228,Essen,DE
7,51.07282,13.02004,Waldheim,DE
7,46.00278,14.03056,Idrija,SI
7,53.60407,8.30635,Langwarden,DE
7,51.43333,11.56667,Farnstädt,DE
7,40.20564,-8.41955,Coimbra,PT
7,51.491,0.0648,Woolwich,GB
7,51.64071,12.8794,Dommitzsch,DE
7,53.36745,7.20778,Emden,DE
7,44.91417,13.76222,Brijuni,HR
7,52.73494,10.2354,Eschede,DE
7,48.11667,9.95,Freyberg,DE
6,48.21126,16.34706,Gemeindebezirk Josefstadt,AT
6,47.94711,13.59541,Kammer,AT
6,38.11572,13.36143,Palermo,IT
6,48.19198,16.36714,Gemeindebezirk Wieden,AT
6,47.21526,7.79607,Langenthal,CH
6,45.38876,8.66124,Garbagna Novarese,IT
6,51.57558,8.10619,Soest,DE
6,50.36463,8.73859,Bad Nauheim,DE
6,44.11578,15.22514,Zadar,HR
6,51.83948,10.79082,Wernigerode,DE
6,47.80485,16.23196,Wiener Neustadt,AT
6,49.98081,36.25272,Kharkiv,UA
6,50.75427,10.34346,Herrenbreitungen,DE
6,51.1238,11.56045,Eckartsberga,DE
6,52.34992,4.62301,Heemstede,NL
6,50.89982,11.28245,Bad Berka,DE
6,52.34167,5.62083,Harderwijk,NL
6,52.71653,5.27615,Gemeente Enkhuizen,NL
6,42.88052,-8.54569,Santiago de Compostela,ES
6,50.65778,12.19918,Greiz,DE
6,52.5175,13.3529,Bellevue Palace,DE
6,51.30785,12.3761,Connewitz,DE
6,46.64944,23.81836,Cluj,RO
6,50.51076,10.75658,Schleusingen,DE
6,51.67617,10.09931,Katlenburg,DE
6,52.42713,14.9299,Grabno,PL
6,48.06965,15.04801,Steinakirchen am Forst,AT
6,48.49144,9.20427,Reutlingen,DE
6,46.32063,9.39816,Chiavenna,IT
6,50.4669,4.86746,Namur,BE
6,46.66812,11.16127,Merano,IT
6,46.75112,7.57218,Thierachern,CH
6,49.03685,8.70745,Bretten,DE
6,45.16031,10.79784,Mantova,IT
6,52.00993,10.13197,Bockenem,DE
6,52.11304,11.63311,Kloster Berge,DE
6,47.55776,8.89893,Frauenfeld,CH
6,48.7241,11.1785,Neuburg a.d.Donau,DE
6,45.38333,12.35,Lido,IT
6,48.19522,16.35032,Gemeindebezirk Mariahilf,AT
6,6.93548,79.84868,Colombo,LK
6,51.72892,12.45651,Gräfenhainichen,DE
6,51.23256,11.25781,Beichlingen,DE
6,50.43488,16.66145,Kłodzko,PL
6,52.11457,8.67343,Herford,DE
6,52.38819,-2.25,Kidderminster,GB
6,52.96572,10.56111,Uelzen,DE
6,50.87959,4.70093,Leuven,BE
6,53.5672,8.59021,Lehe,DE
6,63.43049,10.39506,Trondheim,NO
6,54.30911,13.0818,Stralsund,DE
6,51.25,13.88333,Laußnitz,DE
6,29.95465,-90.07507,New Orleans,US
6,47.28779,7.94586,Zofingen,CH
6,50.77603,6.08723,Aachen,DE
6,58.97005,5.73332,Stavanger,NO
6,48.62559,9.34241,Nürtingen,DE
6,49.39791,4.7012,Vouziers,FR
6,37.2376,-5.10311,Osuna,ES
6,46.34968,48.04076,Astrakhan,RU
6,50.37628,8.72764,Bad Nauheim,DE
6,53.06278,10.23497,Wulfsode,DE
6,51.94194,1.28437,Harwich,GB
6,38.16922,-6.6537,Fregenal de la Sierra,ES
6,48.34042,7.86886,Lahr,DE
6,48.88353,12.57966,Straubing,DE
6,49.73973,10.15072,Kitzingen,DE
6,51.63533,11.90106,Löbejün,DE
6,51.1161,7.39865,Wipperfürth,DE
6,52.07388,12.68947,Niemegk,DE
6,48.86415,2.44322,Montreuil,FR
6,47.30998,8.11371,Unterkulm,CH
6,51.50949,-0.59541,Slough,GB
6,50.76667,11.63333,Hummelshain,DE
6,39.46975,-0.37739,Valencia,ES
6,48.99958,8.80337,Maulbronn,DE
6,51.43333,12.68333,Thallwitz,DE
6,51.67668,8.3411,Lippstadt,DE
6,41.85003,-87.65005,Chicago,US
6,47.6667,8.9,Öhningen,DE
6,59.09773,9.05867,Drangedal,NO
6,49.35521,11.09885,Kornburg,DE
6,47.7531,7.16577,Schweighouse-Thann,FR
6,46.2937,7.88149,Visp,CH
6,50.85332,4.35144,Brussels Capital,BE
5,46.79942,11.93429,Bruneck,IT
5,49.71754,11.05877,Forchheim,DE
5,51.13181,9.27557,Fritzlar,DE
5,49.41794,2.82606,Compiègne,FR
5,42.51954,-70.89672,Salem,US
5,50.94217,11.75635,Bürgel,DE
5,48.84598,2.20289,Saint-Cloud,FR
5,47.63009,43.14068,Kotelnikowo,RU
5,51.25287,12.7252,Hohnstädt,DE
5,46.25858,6.11063,Ferney-Voltaire,FR
5,48.91675,8.50591,Langensteinbach,DE
5,51.80649,10.91264,Michaelstein,DE
5,48.81381,2.235,Meudon,FR
5,51.2755,12.36906,Markkleeberg,DE
5,49.49367,10.65265,Markt Erlbach,DE
5,53.11125,9.41082,Rotenburg,DE
5,54.0149,19.8088,Kwitajny,PL
5,49.4938,0.10767,Le Havre,FR
5,50.46627,17.17348,Otmuchów,PL
5,45.48459,6.53146,Moûtiers,FR
5,51.93814,13.88826,Lubin,DE
5,48.81557,7.79051,Haguenau,FR
5,62.89379,7.67714,Gjemnes,NO
5,54.26667,9.85,Emkendorf,DE
5,45.88576,10.84118,Riva del Garda,IT
5,53.59021,13.08529,Mölln,DE
5,50.81644,12.39045,Crimmitschau,DE
5,51.05942,14.97093,Radomierzyce,PL
5,51.03395,11.2795,Ettersburg,DE
5,50.51111,11.36843,Lauenstein,DE
5,60.42362,4.96662,Landro,NO
5,45.77969,3.08682,Clermont-Ferrand,FR
5,51.50047,11.96067,Giebichenstein,DE
5,52.73679,15.22878,Gorzów Wielkopolski,PL
5,38.41273,27.13838,Izmir,TR
5,47.76111,11.5589,Bad Tölz,DE
5,49.3856,11.3573,Altdorf bei Nurnberg,DE
5,49.30028,9.65303,Ingelfingen,DE
5,53.46057,9.98388,Harburg,DE
5,51.42763,9.48017,Immenhausen,DE
5,52.83088,12.07552,Havelberg,DE
5,52.21951,21.03034,Ujazdowski - Zamek,PL
5,50.68594,7.64176,Altenkirchen,DE
5,49.8414,7.86713,Bad Kreuznach,DE
5,50.7401,14.59152,Sloup v Čechách,CZ
5,47.82094,9.3128,Heiligenberg,DE
5,59.83333,10.43721,Asker,NO
5,55.7068,21.13912,Klaipėda,LT
5,44.79935,10.32618,Parma,IT
5,50.42553,10.73184,Hildburghausen,DE
5,50.32925,7.6107,Horchheim,DE
5,10.39972,-75.51444,Cartagena,CO
5,49.32637,7.33867,Homburg,DE
5,49.22971,9.15648,Bad Wimpfen,DE
5,44.84044,-0.5805,Bordeaux,FR
5,46.40934,11.57515,Karersee,IT
5,50.24636,10.20187,Münnerstadt,DE
5,48.89643,2.0904,Saint-Germain-en-Laye,FR
5,52.5252,11.39523,Gardelegen,DE
5,48.82209,2.41217,Charenton-le-Pont,FR
5,47.23127,11.41018,Igls,AT
5,51.09493,11.99348,Bonau,DE
5,51.27001,12.30183,Knauthain,DE
5,50.02684,11.68829,Goldmühl,DE
5,51.62355,12.32395,Bitterfeld-Wolfen,DE
5,52.60701,12.87374,Nauen,DE
5,49.78973,9.92084,Fortress Marienberg,DE
5,54.51188,9.54082,Gottorf,DE
5,46.16852,9.87134,Sondrio,IT
5,61.07394,4.83876,Solund,NO
5,48.68075,5.89115,Toul,FR
5,51.09217,10.72927,Gräfentonna,DE
5,50.35909,3.52506,Valenciennes,FR
5,46.22671,10.82582,Madonna di Campiglio,IT
5,43.08858,-2.31408,Zumarraga,ES
5,49.5217,5.76192,Longwy,FR
5,52.12263,9.73595,Elze,DE
5,47.18333,14.75,Zeltweg,AT
5,52.90435,10.57494,Wrestedt,DE
5,47.76327,15.69771,Nasswald,AT
5,50.33029,8.76206,"Friedberg (Hessen), Kreisstadt",DE
5,48.0529,14.12919,Kremsmünster,AT
5,47.44637,12.39215,Kitzbühel,AT
5,48.1667,12.1833,"Haag i.OB, Markt",DE
5,48.07579,14.46131,Haidershofen,AT
5,47.50311,9.7471,Bregenz,AT
5,48.03832,14.20773,Bad Hall,AT
5,50.6759,9.55925,Schlitz,DE
5,53.21917,6.56667,Groningen,NL
5,50.54553,8.505,Wetzlar,DE
5,48.75071,8.5504,Bad Wildbad,DE
5,53.19749,8.91764,Westerwede,DE
5,51.8,9.68333,Dassel,DE
5,47.7123,11.7582,Tegernsee,DE
5,50.61028,10.70722,Kreisfreie Stadt Suhl,DE
5,51.69223,13.6473,Sonnewalde,DE
5,52.37115,10.13128,Sievershausen,DE
5,47.18333,11.41667,Schönberg im Stubaital,AT
5,42.69751,23.32415,Sofia,BG
5,50.57866,11.81024,Schleiz,DE
5,53.60153,22.57391,Ełk,PL
5,16.80528,96.15611,Yangon,MM
5,50.7364,11.74619,Neustadt an der Orla,DE
5,22.27832,114.17469,Hong Kong,HK
5,35.6895,139.69171,Tokyo,JP
5,46.61901,14.03129,Velden am Wörthersee,AT
5,56.03606,12.6136,Elsinore,DK
5,37.98376,23.72784,Athens,GR
5,55.79629,-4.86337,Largs,GB
5,54.07676,21.37527,Kętrzyn,PL
5,49.98746,11.37668,Sendemast Thurnau,DE
5,46.95799,7.10707,Nant,CH
5,47.44856,9.04902,Rickenbach bei Wil,CH
5,46.73148,7.66903,Oberhofen,CH
5,46.51127,6.49854,Morges,CH
5,41.67719,26.55597,Edirne,TR
5,47.47333,8.30592,Baden,CH
5,46.77793,9.67621,Arosa,CH
5,41.04144,-8.64914,Praia da Granja,PT
5,47.73621,11.85936,Schliersee,DE
5,51.21006,16.1619,Legnica,PL
5,43.84823,10.50705,Lucca,IT
4,49.40735,8.84342,Neckarsteinach,DE
4,50.58689,13.07263,Mildenau,DE
4,50.85952,11.24648,Tannroda,DE
4,49.10245,8.00092,Bad Bergzaben,DE
4,51.64205,15.13727,Żary,PL
4,50.18952,11.78823,Münchberg,DE
4,47.84921,12.81919,Teisendorf,DE
4,52.18877,11.04624,Harbke,DE
4,14.6042,120.9822,Manila,PH
4,51.67274,15.98339,Żukowice,PL
4,51.35609,11.09977,Bad Frankenhausen,DE
4,49.4942,10.7897,Langenzenn,DE
4,49.91099,15.38972,Čáslav,CZ
4,49.70452,9.26725,Miltenberg,DE
4,48.53695,9.2833,Metzingen,DE
4,52.3407,9.36717,Bad Nenndorf,DE
4,41.38242,-8.24887,Vizela,PT
4,47.43608,9.55585,Altenstein,CH
4,46.31407,4.82823,Mâcon,FR
4,5.45303,-75.65072,Supía,CO
4,48.9535,2.31514,Épinay-sur-Seine,FR
4,34.01949,-118.49138,Santa Monica,US
4,51.55051,14.7124,Bad Muskau,DE
4,50.3162,10.22476,Bad Neuhaus an der Saale,DE
4,53.9377,21.54642,Ryn,PL
4,56.1706,14.86188,Karlshamn,SE
4,48.22387,16.35641,Gemeindebezirk Alsergrund,AT
4,50.1053,11.44255,Kulmbach,DE
4,51.61759,15.31486,Żagań,PL
4,41.91886,8.73812,Ajaccio,FR
4,52.45606,13.332,Steglitz,DE
4,47.0942,7.15699,Twann,CH
4,51.61032,13.55174,Doberlug,DE
4,46.8289,12.76903,Lienz,AT
4,50.52463,11.30678,Gräfenthal,DE
4,52.6069,11.85867,Stendal,DE
4,-33.93462,18.86676,Stellenbosch,ZA
4,48.08078,7.35584,Colmar,FR
4,47.19255,5.38726,Auxonne,FR
4,43.93064,10.92365,Pistoia,IT
4,49.06942,10.31985,Dinkelsbühl,DE
4,50.22002,10.99086,Niederfüllbach,DE
4,62.27594,10.78241,Tynset,NO
4,46.66554,6.58763,Goumoens-le-Jux,CH
4,51.25858,9.7845,Großalmerode,DE
4,52.54463,11.97647,Tangermünde,DE
4,-23.96306,-46.39194,São Vicente,BR
4,47.36121,9.68694,Hohenems,AT
4,-22.90642,-43.18223,Rio de Janeiro,BR
4,49.6025,8.51639,Neuschloß,DE
4,43.32472,21.90333,Niš,RS
4,51.17706,9.36748,Gudensberg,DE
4,29.87637,31.21251,Serapeum,EG
4,50.77141,16.28432,Wałbrzych,PL
4,40.03108,-3.60246,Aranjuez,ES
4,46.72077,9.4485,Fürstenau,CH
4,51.0386,8.41661,Bad Berleburg,DE
4,49.74747,13.37759,Pilsen,CZ
4,49.66541,10.14811,Marktbreit,DE
4,47.7928,18.74148,Esztergom,HU
4,55.70584,13.19321,Lund,SE
4,48.41215,9.78427,Blaubeuren Abbey,DE
4,46.47455,7.13155,Chateau-d'Oex,CH
4,45.62396,10.56682,Gardone Riviera,IT
4,54.56861,22.44611,Yasnaya Polyana,RU
4,46.58624,6.60587,Cheseaux-sur-Lausanne,CH
4,46.97965,9.64639,Grüsch,CH
4,50.55243,9.87456,Kleinsassen,DE
4,54.58655,13.10559,Kloster,DE
4,54.32824,48.38657,Ulyanovsk,RU
4,51.18745,11.24488,Kölleda,DE
4,51.26451,13.9054,Königsbrück,DE
4,40.73793,13.94862,Ischia,IT
4,50.91911,14.05581,Königstein Fortress,DE
4,39.42336,-93.13048,Brunswick,US
4,52.05818,11.95203,Leitzkau,DE
4,46.18915,-1.15387,Lagord,FR
4,41.65518,-4.72372,Valladolid,ES
4,48.08284,16.25874,Vorderbrühl,AT
4,53.55698,9.8059,Blankenese,DE
4,51.79025,10.95509,Blankenburg,DE
4,52.94212,12.39704,Kyritz,DE
4,51.18459,6.81249,Düsseldorf-Wersten,DE
4,51.76507,10.97276,Wienrode,DE
4,46.76638,6.56472,Mathod,CH
4,51.30777,13.29168,Riesa,DE
4,50.10068,11.45032,Kulmbach,DE
4,42.83333,12.83333,Italy,IT
4,46.78464,7.49988,Burgistein,CH
4,52.02786,8.89901,Lemgo,DE
4,50.37418,11.77992,Berg,DE
4,51.8,10.03333,Kalefeld,DE
4,50.85168,3.60891,Oudenaarde,BE
4,51.13008,2.75135,Nieuwpoort,BE
4,50.41155,4.16469,Binche,BE
4,47.85,9.66667,Baindt,DE
4,48.37119,10.30706,Ichenhausen,DE
4,50.87602,10.97028,Ichtershausen,DE
4,48.28776,8.81288,Geislingen,DE
4,43.74359,44.65177,Mozdok,RU
4,48.89389,2.28864,Levallois-Perret,FR
4,48.70519,18.91834,Kremnica,SK
4,50.3607,11.90455,Zedtwitz,DE
4,49.16812,12.63762,Loifling,DE
4,53.21667,8.93333,Worpswede,DE
4,53.89314,11.45286,Wismar,DE
4,53.48462,10.22904,Bergedorf,DE
4,52.52143,7.31845,Lingen,DE
4,53.69772,12.68065,Basedow,DE
4,49.04328,10.59906,Wassertrüdingen,DE
4,50.68449,13.85815,Krupka,CZ
4,52.4333,13.30762,Lichterfelde,DE
4,49.17399,10.03494,Wollmershausen,DE
4,47.06592,7.09717,La Neuveville,CH
4,47.47318,8.67569,Brütten,CH
4,45.62499,10.56527,Gardone Riviera,IT
4,50.6607,14.03227,Ústí nad Labem,CZ
4,49.9789,7.92442,Rüdesheim am Rhein,DE
4,49.4,10.58333,Rügland,DE
4,52.28726,8.92433,Minden,DE
4,48.62565,9.34203,Nürtingen,DE
4,52.79934,15.18602,Mironice,PL
4,43.11639,-0.8625,Tardets-Sorholus,FR
4,53.55,9.91667,Ottensen,DE
4,53.41058,-2.97794,Liverpool,GB
4,47.86577,15.35967,Annaberg,AT
4,52.65915,10.12897,Garßen,DE
4,51.66077,12.92353,Prettin,DE
4,51.51312,10.25951,Duderstadt,DE
4,40.62678,14.37771,Sorrento,IT
4,51.04247,12.0259,Droyßig,DE
4,47.59432,1.32912,Blois,FR
4,47.69509,15.84572,Reichenau an der Rax,AT
4,49.94599,25.31672,Pidkamin,UA
4,48.86519,25.00385,Tlumach,UA
4,51.83333,4.13333,Hellevoetsluis,NL
4,44.06837,12.55565,Rimini,IT
4,49.18585,-0.35912,Caen,FR
4,46.62722,16.04833,Radenci,SI
4,51.51494,7.466,Dortmund,DE
4,42.4818,3.1283,Banyuls-sur-Mer,FR
4,46.48572,30.74383,Odessa,UA
4,53.22683,-0.53792,Lincoln,GB
4,47.32306,12.79839,Zell am See,AT
4,52.31928,10.2352,Peine,DE
4,46.49501,6.87178,Corsier-sur-Vevey,CH
4,49.20007,11.33032,Freystadt,DE
4,56.47489,10.0813,Dronningborg,DK
4,52.16688,11.40125,Eichenbarleben,DE
4,46.80417,13.58056,Millstatt,AT
4,50.85754,10.56507,Friedrichroda,DE
4,48.90609,4.00216,Vertus,FR
4,55.00186,11.92716,Marienlyst,DK
4,51.52517,14.00164,Senftenberg,DE
4,51.17093,8.83458,Fürstenberg,DE
4,47.98044,11.45136,Ebenhausen,DE
4,48.14146,11.45599,Pasing,DE
4,50.14878,7.7072,Sankt Goar,DE
4,54.16241,10.42333,Plön,DE
4,48.11198,-1.67429,Rennes,FR
4,45.29899,4.5683,Bourg-Argental,FR
4,44.87972,22.4125,Băile Herculane,RO
4,50.09195,18.21928,Racibórz,PL
4,50.51623,11.39656,Falkenstein,DE
4,47.25278,4.75472,Barbirey-sur-Ouche,FR
4,46.58261,0.34348,Poitiers,FR
4,50.73333,7.01667,Alfter,DE
4,49.13645,8.91229,Eppingen,DE
4,48.8846,2.26965,Neuilly-sur-Seine,FR
4,50.17596,3.23472,Cambrai,FR
4,50.86171,10.55912,Reinhardsbrunn,DE
4,35.69906,-0.63588,Oran,DZ
4,46.23092,15.26044,Celje,SI
4,43.18396,3.00141,Narbonne,FR
4,53.64866,7.61267,Esens,DE
4,48.89356,6.18681,Clémery,FR
4,60.0,100.0,Russia,RU
4,50.96546,11.34822,Oberweimar,DE
4,52.07391,11.82297,Gommern,DE
4,43.94948,-0.04471,Barbotan-les-Thermes,FR
4,51.11074,15.58582,Gmina Lwówek Śląski,PL
4,50.28333,11.95,Döhlau,DE
4,54.14351,19.78252,Słobity,PL
4,51.01734,10.99346,Gispersleben,DE
4,48.39357,10.88123,Oberhausen,DE
4,50.8634,12.18666,Ronneburg,DE
4,43.32004,11.33283,Siena,IT
4,50.95194,1.85635,Calais,FR
4,54.30663,9.66313,Rendsburg,DE
4,51.60962,10.21619,Gieboldehausen,DE
4,47.20583,9.35402,Wildhaus,CH
4,48.08605,16.28921,Mödling,AT
4,48.85851,8.20965,Rastatt,DE
3,49.97143,82.60586,Ust-Kamenogorsk,KZ
3,49.443,7.77161,Kaiserslautern,DE
3,37.26833,-4.54123,Benamejí,ES
3,48.12414,9.76729,Birkenhard,DE
3,44.41286,8.95729,Genova,IT
3,51.58656,4.77596,Breda,NL
3,43.36417,-2.50492,Lekeitio,ES
3,45.88344,16.17548,Belovar,HR
3,51.62894,12.1174,Zörbig,DE
3,51.40654,-0.06389,Anerley,GB
3,46.88042,8.64441,Altdorf,CH
3,46.61301,14.0413,Velden am Wörther See,AT
3,47.90265,20.37329,Eger,HU
3,53.53615,8.59298,Bremerhaven,DE
3,60.11667,10.26667,Ringerike,NO
3,50.37147,11.83777,Joditz,DE
3,39.22725,-92.84658,Glasgow,US
3,47.00601,9.50266,Bad Ragaz,CH
3,48.38724,9.66389,Justingen,DE
3,46.6034,9.42614,Andeer,CH
3,47.39289,13.68699,Schladming,AT
3,37.07542,15.28664,Syracuse,IT
3,49.76502,10.34011,Rüdenhausen,DE
3,53.38153,10.72375,Boizenburg,DE
3,47.05901,7.62786,Burgdorf,CH
3,47.27743,8.45128,Affoltern am Albis,CH
3,50.8272,8.92806,Kirchhain,DE
3,47.77657,9.27767,Schloß Salem,DE
3,52.25116,10.81683,Königslutter am Elm,DE
3,51.46043,13.52001,Elsterwerda,DE
3,51.20806,6.77667,Düsseldorf-Bilk,DE
3,46.9751,7.49697,Bolligen,CH
3,56.85836,35.90057,Tver',RU
3,27.03333,88.26667,Darjeeling,IN
3,44.35916,11.7132,Imola,IT
3,46.31682,6.19114,Coppet,CH
3,27.19678,2.47913,In Salah,DZ
3,42.56604,8.75713,Calvi,FR
3,43.35798,-1.40174,Cambo-les-Bains,FR
3,48.67324,1.97422,Cernay-la-Ville,FR
3,55.17111,59.65083,Zlatoust,RU
3,51.12416,12.49639,Borna,DE
3,47.72674,10.31389,Kempten (Allgäu),DE
3,51.77189,12.63227,Kemberg,DE
3,50.26667,11.85,Konradsreuth,DE
3,50.06135,8.52916,Kelsterbach,DE
3,46.8,13.5,Spittal an der Drau,AT
3,53.29237,10.50188,Scharnebeck,DE
3,49.18232,16.38787,Rosice,CZ
3,51.27271,9.37572,Elgershausen,DE
3,49.51631,23.2006,Sambir,UA
3,46.81909,13.5143,Seeboden,AT
3,47.12852,11.45222,Matrei am Brenner,AT
3,58.19807,68.25457,Tobol'sk,RU
3,50.2736,7.64508,Braubach,DE
3,59.13118,10.21665,Sandefjord,NO
3,32.48201,35.01932,Tel Esur,IL
3,42.65396,18.07792,Lapad,HR
3,48.54238,1.93928,Denisy,FR
3,51.69917,5.30417,'s-Hertogenbosch,NL
3,52.81834,11.42925,Sanne,DE
3,48.43476,0.09311,Alençon,FR
3,47.61667,13.81667,Grundlsee,AT
3,51.64333,4.75417,Terheijden,NL
3,48.15833,16.47417,Kaiserebersdorf,AT
3,61.93333,5.65,Sunndal,NO
3,54.4565,21.70136,Luzhki,RU
3,51.07677,12.90725,Geringswalde,DE
3,35.43333,139.65,Yokohama,JP
3,48.11935,16.26607,Perchtoldsdorf,AT
3,51.68033,7.82089,Hamm,DE
3,45.69173,5.90863,Aix-les-Bains,FR
3,52.51215,5.04805,Edam,NL
3,53.86828,8.69902,Cuxhaven,DE
3,48.20992,13.80981,Gallspach,AT
3,15.5,-61.33333,Dominica,DM
3,43.28174,-1.94634,Astigarraga,ES
3,22.15778,113.55972,Macao,MO
3,28.09973,-15.41343,Las Palmas de Gran Canaria,ES
3,47.76667,13.38333,Fürberg,AT
3,47.28433,11.37706,Innsbruck Stadt,AT
3,51.54458,13.06118,Graditz,DE
3,38.59213,-1.69191,Tobarra,ES
3,48.06833,16.35607,Laxenburg,AT
3,51.1221,13.11027,Döbeln,DE
3,51.12573,9.28023,"Fritzlar, Dom- und Kaiserstadt",DE
3,50.86405,8.74152,Goßfelden,DE
3,48.70354,9.65209,Göppingen,DE
3,47.85648,13.34908,Mondsee,AT
3,46.2375,15.63972,Rogaška Slatina,SI
3,43.5,16.5,Grad Split,HR
3,49.91985,9.07596,Großostheim,DE
3,-23.5475,-46.63611,São Paulo,BR
3,50.81987,12.54493,Glauchau,DE
3,52.24333,4.43472,Noordwijk aan Zee,NL
3,43.84864,18.35644,Sarajevo,BA
3,43.48921,-1.51921,Anglet,FR
3,45.52478,10.22727,Brescia,IT
3,52.85435,11.1525,Salzwedel,DE
3,47.31667,5.01667,Dijon,FR
3,47.46513,8.28964,Baden,CH
3,58.51667,5.8,Ogna,NO
3,46.71667,11.5,South Tyrol,IT
3,52.23495,9.85411,Sarstedt,DE
3,51.16154,11.18661,Frohndorf,DE
3,59.28333,10.35,Jarlsberg,NO
3,46.75024,15.54505,Aflenz,AT
3,51.49607,9.385,Hofgeismar,DE
3,43.31667,-2.68333,Gernika-Lumo,ES
3,37.89155,-4.77275,Córdoba,ES
3,53.67028,13.554,Friedland,DE
3,44.43225,26.10626,Bucharest,RO
3,49.73175,10.22951,Fröhstockheim,DE
3,47.55631,10.74085,Hohenschwangau,DE
3,47.5,19.08333,Budapest,HU
3,49.02173,20.59212,Levoča,SK
3,58.753,17.00788,Nyköping,SE
3,52.44628,10.0064,"Burgdorf, Hanover",DE
3,51.20892,3.22424,Bruges,BE
3,46.06233,8.69628,Cannobio,IT
3,51.77501,9.38155,Höxter,DE
3,-8.55861,125.57361,Dili,TL
3,63.28555,10.27806,Melhus,NO
3,48.51103,14.50453,Freistadt,AT
3,50.80434,6.49299,Düren,DE
3,55.78526,-6.23886,Islay,GB
3,63.11045,7.72795,Kristiansund,NO
3,51.65,3.91944,Zierikzee,NL
3,43.5942,13.50337,Ancona,IT
3,52.51264,6.09359,Gemeente Zwolle,NL
3,48.21123,13.48855,Ried im Innkreis,AT
3,47.68105,8.74479,Diessenhofen,CH
3,48.23451,16.37409,Gemeindebezirk Brigittenau,AT
3,52.61421,13.30587,Hermsdorf,DE
3,-0.22985,-78.52495,Quito,EC
3,48.99976,8.47432,Durlach,DE
3,53.76881,13.73884,Charlottenhof,DE
3,42.34106,-3.70184,Burgos,ES
3,52.39708,13.02833,Charlottenhof,DE
3,49.47593,10.98856,Fürth,DE
3,49.06945,10.31942,Dinkelsbühl,DE
3,50.3402,10.77869,Bad Rodach,DE
3,0.39241,9.45356,Libreville,GA
3,49.09008,4.89733,Sainte-Menehould,FR
3,51.27561,8.873,Korbach,DE
3,49.96675,7.8992,Bingen am Rhein,DE
3,49.65408,13.20271,Chotěšov,CZ
3,52.26038,10.36491,Vechelde,DE
3,46.24314,11.82764,Primiero San Martino di Castrozza,IT
3,50.15422,7.70458,Rheinfels Castle,DE
3,50.81342,10.2361,Bad Salzungen,DE
3,49.95553,15.99143,Chroustovice,CZ
3,37.31065,13.57661,Agrigento,IT
3,49.25311,3.09003,Villers-Cotterêts,FR
3,51.12598,1.31257,Dover,GB
3,50.42849,10.30334,Mellrichstadt,DE
3,51.49827,9.60068,Veckerhagen,DE
3,51.50981,16.26363,Rudna,PL
3,51.63272,10.47031,Bad Lauterberg im Harz,DE
3,49.03708,7.94548,Wissembourg,FR
3,50.93032,12.01005,Bad Köstritz,DE
3,52.39734,9.26791,Sachsenhagen,DE
3,53.55201,-0.49214,Brigg,GB
3,46.48811,7.20659,Rougemont,CH
3,55.66667,37.68333,Kolomenskoye,RU
3,52.26448,9.76436,Pattensen,DE
3,38.19394,15.55256,Messina,IT
3,46.04934,11.40824,Roncegno,IT
3,59.93371,10.72051,Marienlyst,NO
3,54.37446,21.89077,Гросс Бейнунен,RU
3,49.38217,8.5823,Schwetzingen,DE
3,52.74196,13.45799,Wandlitz,DE
3,50.93381,13.77385,Lungkwitz,DE
3,49.26127,13.4985,Hrádek,CZ
3,51.0479,0.51095,Hawkhurst,GB
3,50.40574,8.15457,Runkel,DE
3,53.62017,10.6773,Mölln,DE
3,39.53935,3.33465,Porto Cristo,ES
3,53.59176,45.22709,Lunino,RU
3,50.20923,15.83277,Hradec Králové,CZ
3,34.07362,-118.40036,Beverly Hills,US
3,51.89095,10.17847,Seesen,DE
3,47.82468,11.30219,Seeshaupt,DE
3,52.19446,14.79567,Cybinka,PL
3,50.78311,9.91547,Mansbach,DE
3,51.15447,10.83873,Bad Tennstedt,DE
3,50.40164,11.83543,Venzka,DE
3,52.66509,14.10773,Möglin,DE
3,53.6884,23.8258,Hrodna,BY
3,50.39077,17.00272,Javorník,CZ
3,51.16585,10.42163,Oberdorla,DE
3,51.75742,11.46084,Aschersleben,DE
3,46.22739,7.35559,Sion,CH
3,47.65796,9.07949,Wolfsberg,CH
3,53.09972,12.89885,Rheinsberg,DE
3,51.36431,11.29167,Artern,DE
3,41.69411,44.83368,Tbilisi,GE
3,52.85281,12.44923,Neustadt (Dosse),DE
3,51.66849,9.9783,Sudheim,DE
3,47.995,16.05991,Weissenbach an der Triesting,AT
3,45.54672,11.5475,Vicenza,IT
3,48.88126,12.57385,Straubing,DE
3,51.62878,9.93593,Nörten-Hardenberg,DE
3,51.42938,6.77435,Duisburg,DE
3,53.74945,19.7392,Karnitki,PL
3,55.92377,24.59542,Padagai,LT
3,46.28382,6.16214,Versoix,CH
3,50.25801,10.96724,Schloß Ehrenburg,DE
3,49.64437,9.22178,Amorbach,DE
3,49.45193,10.4667,Obernzenn,DE
3,49.17996,11.41359,Sulzbürg,DE
3,51.7986,12.40583,Oranienbaum,DE
3,46.45472,11.26178,Appiano sulla strada del vino/Eppan an der Weinstraße,IT
3,49.8547,8.35974,Oppenheim,DE
3,52.75968,9.55115,Ahlden,DE
3,47.99416,7.84701,Freiburg im Breisgau,DE
3,54.59682,-5.92541,Belfast,GB
3,48.8048,9.2145,Bad Cannstatt,DE
3,50.83333,10.81667,Ohrdruf,DE
3,51.3751,-2.36172,Bath,GB
3,51.23619,13.04567,Mügeln,DE
3,48.95274,10.60465,Oettingen in Bayern,DE
3,52.87037,10.22552,Oberohe,DE
3,54.78693,20.88449,"Saretschje (Kaliningrad, Gurjewsk)",RU
3,52.39322,13.0955,Babelsberg,DE
3,50.55531,10.59844,Oberstadt,DE
3,44.69825,10.63125,Reggio Emilia,IT
3,48.75511,10.33041,Neresheim,DE
3,47.77368,12.14002,Neubeuern,DE
3,46.97302,8.58689,Seelisberg,CH
3,47.93751,11.52749,Aufhofen,DE
3,56.0,10.0,Denmark,DK
3,48.93964,9.25995,Marbach am Neckar,DE
3,54.3034,18.69015,Mokry Dwór,PL
3,52.59354,9.30262,Linsburg,DE
3,53.83184,10.49126,Reinfeld,DE
3,50.3836,8.0503,Limburg an der Lahn,DE
3,48.74668,8.26017,Lichtental,DE
3,49.46667,1.43333,La Haye,FR
3,50.47379,17.33437,Nysa,PL
3,51.59547,7.14687,Herten,DE
3,52.12875,10.29058,Lichtenberg,DE
3,50.67449,7.19467,Königswinter,DE
3,47.78393,10.65996,Bertoldshofen,DE
3,53.46696,15.33342,Chociwel,PL
3,49.9261,4.5222,Rocroi,FR
3,7.2906,80.6336,Kandy,LK
3,47.60972,8.2375,Koblenz,CH
3,48.93564,2.35387,Saint-Denis,FR
3,49.01667,2.26667,Saint-Prix,FR
3,51.72379,13.38304,Schlieben,DE
3,54.63558,21.90718,Angrapa,RU
3,43.29789,13.45293,Macerata,IT
3,54.25354,20.80819,Bartoszyce,PL
3,43.54427,10.32615,Livorno,IT
3,49.50264,10.45495,Lenkersheim,DE
3,51.24546,7.03058,Schöller,DE
3,51.8824,9.6229,Stadtoldendorf,DE
3,50.97361,11.33806,Kreisfreie Stadt Weimar,DE
3,50.01058,12.62474,Lázně Kynžvart,CZ
3,47.93389,10.82844,Leeder,DE
3,48.56775,10.42706,Lauingen,DE
3,51.94785,7.99103,Warendorf,DE
3,48.04819,10.88282,Landsberg am Lech,DE
3,51.7727,55.0988,Orenburg,RU
3,48.94407,9.11755,Bietigheim-Bissingen,DE
3,46.58108,12.25275,Misurina,IT
3,51.19537,13.30917,Lommatzsch,DE
3,52.85014,9.9156,Wardböhmen,DE
3,49.98922,9.57223,Lohr a. Main,DE
3,50.98831,14.00268,Lohmen,DE
3,49.24557,1.41168,Les Andelys,FR
3,54.07417,10.62736,Barkau,DE
3,51.21492,12.7423,Kloster Nimbschen,DE
3,51.85245,13.70735,Luckau,DE
3,50.8833,12.6,Waldenburg,DE
3,58.54063,5.74463,Brusand,NO
3,50.45223,11.6393,Bad Lobenstein,DE
3,55.75238,12.5745,Charlottenlund,DK
3,62.98723,7.55631,Averøy,NO
3,51.08223,6.56931,Laach,DE
3,54.1767,12.08402,Warnemünde,DE
3,47.80494,13.48728,Unterach (Attersee),AT
3,51.69868,17.43738,Krotoszyn,PL
3,48.56601,2.06471,Le Val-Saint-Germain,FR
3,48.0021,0.20251,Le Mans,FR
3,52.1333,8.48333,Spenge,DE
2,46.92984,7.56306,Worb,CH
2,45.05,7.66667,Torino,IT
2,47.47899,8.21842,Windisch,CH
2,50.01667,12.01667,Bad Alexandersbad,DE
2,47.8,13.53333,Weißenbach am Attersee,AT
2,54.21993,21.35347,Barciany,PL
2,50.14277,8.39231,Eppstein,DE
2,44.86833,13.84806,Pula,HR
2,45.86951,10.87561,Torbole sul Garda,IT
2,48.86833,11.07336,Dollnstein,DE
2,51.92333,4.25,Maassluis,NL
2,48.23333,16.31667,Gemeindebezirk Währing,AT
2,48.9332,10.76079,Döckingen,DE
2,45.1869,9.78781,Pizzighettone,IT
2,46.39869,6.92654,Villeneuve,CH
2,48.63773,4.94892,Saint-Dizier,FR
2,51.62578,13.56232,Doberlug-Kirchhain,DE
2,42.39063,18.91417,Cetinje,ME
2,53.67515,10.22593,Ahrensburg,DE
2,47.91303,1.97705,Saint-Jean-de-Braye,FR
2,52.71009,-2.75208,Shrewsbury,GB
2,51.19128,14.75814,Döbschütz,DE
2,48.34507,8.40197,Alpirsbach,DE
2,52.19741,9.79461,Alt Calenberg,DE
2,48.64846,0.75783,Saint-Maurice-lès-Charencey,FR
2,43.89389,17.71333,Crkvice,BA
2,43.38488,-1.66817,Ciboure,FR
2,53.35512,-6.24922,Dublin City,IE
2,55.33051,8.76966,Ribe,DK
2,52.03143,9.1256,Alverdissen,DE
2,45.88577,10.84117,Riva del Garda,IT
2,51.29606,12.56922,Eicha,DE
2,41.95952,12.8016,Tivoli,IT
2,56.21949,9.39486,Frederiksdal,DK
2,49.24762,11.09111,Roth,DE
2,43.31117,-0.35583,Pau,FR
2,52.26927,6.23795,Gemeente Deventer,NL
2,23.26961,5.63519,Assekrem,DZ
2,48.95393,4.36724,Châlons-en-Champagne,FR
2,48.87143,2.22929,Suresnes,FR
2,45.56628,5.92079,Chambéry,FR
2,45.32163,8.41989,Vercelli,IT
2,47.60578,15.78324,Spital am Semmering,AT
2,43.31822,11.33064,Siena,IT
2,46.12709,3.42577,Vichy,FR
2,36.72028,3.145,El Harrach,DZ
2,50.61655,27.16055,Korets,UA
2,51.5,3.61389,Middelburg,NL
2,46.64121,11.35411,Sarnthein,IT
2,51.44206,0.37106,Gravesend,GB
2,52.00667,4.35556,Delft,NL
2,44.27317,9.39683,Sestri Levante,IT
2,47.31139,11.87139,Zillertal,AT
2,54.20486,21.23289,Drogosze,PL
2,48.28259,9.72749,Ehingen,DE
2,50.86667,11.08333,Elleben,DE
2,46.72493,12.22109,Dobbiaco/Toblach,IT
2,51.46171,-0.30633,Richmond,GB
2,51.58656,10.66326,Ellrich,DE
2,50.57663,12.86836,Elterlein,DE
2,45.24028,13.93667,Pazin,HR
2,47.25931,-0.07808,Saumur,FR
2,51.00736,11.6633,Dornburg,DE
2,48.74164,7.36221,Saverne,FR
2,55.88098,12.50111,Hørsholm,DK
2,52.555,5.91111,Kampen,NL
2,47.05,4.86667,Chorey-les-Beaune,FR
2,45.33333,14.26667,Grad Opatija,HR
2,55.67907,12.59844,Christiansholm,DK
2,54.25299,21.88107,Budry,PL
2,52.6425,5.05972,Hoorn,NL
2,46.26667,11.8,San Martino di Castrozza,IT
2,50.96442,12.35605,Romschütz,DE
2,49.13571,20.43352,Kežmarok,SK
2,49.23262,7.00982,Saarbrücken,DE
2,45.25167,19.83694,Novi Sad,RS
2,42.04945,13.92578,Sulmona,IT
2,46.32313,-0.45877,Niort,FR
2,48.69572,2.18727,Orsay,FR
2,55.74903,12.54601,Gentofte Municipality,DK
2,53.85637,13.68965,Anklam,DE
2,49.96519,8.95129,Babenhausen,DE
2,50.74114,8.28699,Dillenburg,DE
2,46.62111,12.21722,Carbonin,IT
2,46.45312,6.85856,La Tour-de-Peilz,CH
2,43.37452,-1.423,Halsou,FR
2,51.03131,9.0279,Battenhausen,DE
2,61.32564,5.79523,Gaular,NO
2,45.45186,9.14586,Milan,IT
2,47.15,8.52323,Zug,CH
2,50.94381,6.30508,Barmen,DE
2,46.40648,11.60367,Passo di Costalunga,IT
2,50.82412,10.44446,Brotterode,DE
2,51.24053,6.18376,Brüggen,DE
2,50.82928,6.90499,Brühl,DE
2,40.70211,14.48685,Castellammare di Stabia,IT
2,38.38008,-6.59037,Burguillos del Cerro,ES
2,48.79325,2.29275,Fontenay-aux-Roses,FR
2,40.54997,14.22652,Isola di Capri,IT
2,47.95085,11.10306,Dießen am Ammersee,DE
2,49.50274,10.41539,Bad Windsheim,DE
2,40.55073,14.24263,Capri,IT
2,45.87594,10.89106,Nago–Torbole,IT
2,48.69676,8.13523,Bühl,DE
2,46.49142,7.56031,Adelboden,CH
2,36.52672,-6.2891,Cadiz,ES
2,46.48993,6.89817,Saint-Légier-La Chiésaz,CH
2,50.0354,3.04521,Fins,FR
2,45.92202,8.98435,Melano,CH
2,46.25451,6.95406,Monthey,CH
2,46.14262,12.2156,Belluno,IT
2,40.81667,14.06667,Baiae,IT
2,46.43301,6.91143,Montreux,CH
2,46.98271,8.61826,Morschach,CH
2,43.96388,10.17478,Forte dei Marmi,IT
2,47.08557,8.44206,Kuessnacht,CH
2,46.25736,10.25534,Mazzo di Valtellina,IT
2,58.09479,6.80468,Farsund,NO
2,48.95336,9.13644,Bietigheim,DE
2,48.82538,2.47458,Joinville-le-Pont,FR
2,45.93632,11.27206,Lavarone,IT
2,60.39299,5.32415,Bergen,NO
2,45.4105,12.36649,Lido,IT
2,50.88437,14.73291,Bertsdorf,DE
2,51.02776,14.75693,Berthelsdorf,DE
2,46.12888,-1.00955,La Jarrie,FR
2,51.83879,6.61531,Bocholt,DE
2,50.76991,8.89154,Roßdorf,DE
2,52.82621,9.67175,Bockhorn,DE
2,46.51667,11.33333,Gries,IT
2,46.80946,6.646,Grandson,CH
2,51.42189,13.09392,Bockwitz,DE
2,52.34719,13.10532,Bergholz-Rehbrücke,DE
2,47.96737,11.35446,Berg,DE
2,45.30989,9.50085,Lodi,IT
2,54.06936,23.08622,Wigry,PL
2,46.73521,7.66185,Hilterfingen,CH
2,47.25983,8.59778,Horgen,CH
2,49.299,-0.08153,Houlgate,FR
2,49.0341,11.47393,Beilngries,DE
2,47.00584,7.10609,Ins,CH
2,38.08125,13.28947,Monreale,IT
2,47.39067,12.30716,Kirchberg in Tirol,AT
2,52.12264,7.39431,Borghorst,DE
2,41.76984,12.65917,Marino,IT
2,52.65026,13.13787,Bötzow,DE
2,43.35809,-1.7744,Hendaye,FR
2,41.72063,12.6723,Ariccia,IT
2,53.46716,9.68636,Buxtehude,DE
2,52.39551,11.29463,Calvörde,DE
2,48.26,11.43402,Dachau,DE
2,49.9216,1.07772,Dieppe,FR
2,12.16667,-68.96667,Curaçao,CW
2,50.77083,6.01806,Vaals,NL
2,48.11127,9.27238,Bingen,DE
2,48.14497,10.25325,Babenhausen,DE
2,43.71032,-1.05366,Dax,FR
2,51.06859,13.75591,Äußere Neustadt,DE
2,43.1122,12.38878,Perugia,IT
2,58.31215,6.96187,Kvinesdal,NO
2,46.155,15.05333,Trbovlje,SI
2,43.90921,12.9164,Pesaro,IT
2,50.19914,11.2927,Au,DE
2,51.86053,9.59322,Deensen,DE
2,52.58677,11.66682,Deetz,DE
2,43.86693,10.2502,Viareggio,IT
2,51.52546,12.34284,Delitzsch,DE
2,46.39278,15.57444,Slovenska Bistrica,SI
2,51.37982,9.01445,Bad Arolsen,DE
2,51.84168,5.83813,Gemeente Nijmegen,NL
2,54.19747,20.91312,Maszewy,PL
2,57.72093,10.58394,Skagen,DK
2,51.8425,5.85278,Nijmegen,NL
2,53.43333,9.61667,Apensen,DE
2,50.06871,22.22912,Łańcut,PL
2,49.24803,0.37654,Cormeilles,FR
2,52.25,5.75,Netherlands,NL
2,43.97713,21.26121,Jagodina,RS
2,55.64152,12.08035,Roskilde,DK
2,48.76128,5.59067,Commercy,FR
2,44.42445,8.81213,Pegli,IT
2,50.88421,14.11876,Cunnersdorf,DE
2,49.21259,5.64022,Étain,FR
2,50.26648,10.07902,Bad Bocklet,DE
2,45.18446,9.16145,Pavia,IT
2,51.05524,11.70967,Camburg,DE
2,47.11728,9.14867,Obstalden,CH
2,43.46276,11.88068,Arezzo,IT
2,46.50666,6.62493,Ouchy,CH
2,51.38652,11.86956,Bad Lauchstädt,DE
2,46.4955,9.90126,Pontresina,CH
2,50.91667,11.86667,Bad Klosterlausnitz,DE
2,49.0,2.3,Margency,FR
2,31.63416,-7.99994,Marrakesh,MA
2,47.85637,12.12247,Rosenheim,DE
2,41.13015,-7.12023,Pocinho,PT
2,45.91772,10.88672,Arco,IT
2,52.7025,21.08276,Pułtusk,PL
2,46.46757,7.08368,Rossinière,CH
2,46.89313,11.42961,Sterzing,IT
2,51.14754,12.81863,Collmen,DE
2,41.72748,12.659,Albano Laziale,IT
2,45.92298,8.55045,Pallanza,IT
2,51.13204,13.58312,Coswig,DE
2,47.22982,11.88535,Zell am Ziller,AT
2,48.77047,1.3014,Mesnil-sur-l'Estrée,FR
2,46.10805,7.92741,Saas-Fee,CH
2,63.58368,9.95989,Rissa,NO
2,47.68398,15.86768,Payerbach,AT
2,45.6127,11.85429,Abbazia Pisani,IT
2,46.54199,8.59924,Airolo,CH
2,47.83124,1.69582,Meung-sur-Loire,FR
2,50.78945,12.09793,Cronschwitz,DE
2,43.31814,1.95339,Castelnaudary,FR
2,52.03343,5.34571,Doorn,NL
2,44.05507,5.04813,Carpentras,FR
2,51.01122,13.82029,Leuben,DE
2,48.93563,8.96045,Vaihingen an der Enz,DE
2,33.15809,-117.35059,Carlsbad,US
2,49.97575,9.1478,Aschaffenburg,DE
2,52.86147,9.5926,Walsrode,DE
2,50.89827,10.55791,Waltershausen,DE
2,51.21977,7.6273,Lüdenscheid,DE
2,51.09727,12.33336,Lucka,DE
2,49.99348,11.77866,Warmensteinach,DE
2,49.14404,15.00301,Jindřichův Hradec,CZ
2,56.32867,44.00205,Nizhny Novgorod,RU
2,50.89562,11.60191,Lobeda,DE
2,52.03751,12.10788,Lindau,DE
2,50.07438,14.44367,Královské Vinohrady,CZ
2,48.0525,12.22341,Wasserburg am Inn,DE
2,50.75659,12.63025,Lichtenstein,DE
2,48.89229,10.61331,Wechingen,DE
2,50.38335,11.67624,Lichtenberg,DE
2,49.94278,11.27996,Weiher,DE
2,50.56354,11.45619,Leutenberg,DE
2,52.47436,10.35247,Meinersen,DE
2,50.53333,10.41667,Untermaßfeld,DE
2,37.77493,-122.41942,San Francisco,US
2,48.53587,12.15227,Landshut,DE
2,48.28334,10.46917,Thannhausen,DE
2,51.12637,15.91979,Złotoryja,PL
2,54.1562,19.92248,Gładysze,PL
2,53.57358,9.84241,Altona,DE
2,51.19432,12.49645,Mölbis,DE
2,57.76647,40.92686,Kostroma,RU
2,50.98622,12.97537,Mittweida,DE
2,47.92104,8.19063,Titisee-Neustadt,DE
2,47.78903,11.83382,Miesbach,DE
2,49.70721,7.66765,Meisenheim,DE
2,51.37096,13.24126,Trebnitz,DE
2,51.28898,12.75496,Trebsen,DE
2,49.74613,18.62613,Český Těšín,CZ
2,51.57408,9.42095,Trendelburg,DE
2,47.90938,11.2803,Tutzing,DE
2,49.54415,10.23286,Uffenheim,DE
2,52.54692,9.73406,Mellendorf,DE
2,48.81365,13.04592,Unterfrohnstetten,DE
2,50.80406,11.61259,Leuchtenburg,DE
2,40.74482,-73.94875,Long Island City,US
2,55.045,60.10833,Miass,RU
2,49.47866,9.89977,Weikersheim,DE
2,52.27278,9.79568,Koldingen,DE
2,50.23046,14.08693,Slaný,CZ
2,51.31066,9.43116,Wilhelmshöhe,DE
2,49.15325,16.87649,Slavkov u Brna,CZ
2,49.48308,10.71555,Wilhermsdorf,DE
2,28.65195,77.23149,Delhi,IN
2,51.01556,12.46914,Windischleuba,DE
2,50.51667,8.58333,Kleinrechtenbach,DE
2,50.28047,9.09693,Budingen,DE
2,9.93988,76.26022,Kochi,IN
2,48.64683,9.45378,Kirchheim unter Teck,DE
2,50.72615,15.60944,Špindlerův Mlýn,CZ
2,49.52851,17.74008,Teplice nad Bečvou,CZ
2,50.7845,14.0313,Tisá,CZ
2,49.68285,11.07096,Kersbach,DE
2,51.16284,9.61415,Kehrenbach,DE
2,50.06049,12.98506,Toužim,CZ
2,49.22675,10.72769,Wolframs-Eschenbach,DE
2,54.11107,13.83193,Karlshagen,DE
2,43.46472,-3.80444,Santander,ES
2,50.30082,10.46887,Bad Königshofen im Grabfeld,DE
2,26.91962,75.78781,Jaipur,IN
2,47.02534,7.08103,Tschugg,CH
2,49.54887,8.66697,Weinheim,DE
2,47.71854,12.874,Bad Reichenhall-Kirchberg,DE
2,50.63558,9.39777,Lauterbach,DE
2,50.34802,18.93282,Bytom,PL
2,53.37199,10.55654,Lauenburg,DE
2,53.1235,18.00762,Bydgoszcz,PL
2,51.19989,11.06914,Weißensee,DE
2,50.5944,10.42278,Welkershausen,DE
2,50.67252,10.97102,Langewiesen,DE
2,42.23282,-8.72264,Vigo,ES
2,54.37971,19.81959,Braniewo,PL
2,44.88853,0.53262,La Renaudie,FR
2,47.04364,6.90348,Fontaines,CH
2,52.221,7.8045,Tecklenburg,DE
2,50.80717,13.07131,Kunnersdorf,DE
2,50.97494,11.9781,Crossen an der Elster,DE
2,13.08784,80.27847,Chennai,IN
2,49.68667,8.62837,Bensheim,DE
2,51.12094,12.0241,Teuchern,DE
2,54.64772,21.06513,Gvardeysk,RU
2,49.63265,8.36188,Worms,DE
2,51.84034,16.57494,Leszno,PL
2,-18.91368,47.53613,Antananarivo,MG
2,53.63333,11.41667,Kreisfreie Stadt Schwerin,DE
2,54.0616,19.65932,Pasłęk,PL
2,49.2317,8.46074,Philippsburg,DE
2,51.40547,19.70321,Piotrkow Trybunalski,PL
2,50.11749,11.21492,Pfaffendorf,DE
2,50.76269,12.79876,Seifersdorf,DE
2,53.59327,14.54149,Jasenitz,PL
2,51.24279,13.4198,Seußlitz,DE
2,53.42631,11.84875,Parchim,DE
2,50.80019,7.20769,Siegburg,DE
2,48.7,9.01667,Sindelfingen,DE
2,48.3904,9.94941,Söflingen,DE
2,50.84223,16.29146,Książ - zamek warowny XIIIw.,PL
2,51.5582,12.9699,Torgau,DE
2,51.9699,10.71042,Osterwieck,DE
2,48.84694,2.26366,Auteuil,FR
2,51.21219,13.01565,Sornzig,DE
2,52.78721,11.75297,Osterburg,DE
2,46.62283,15.45043,Viltus,SI
2,53.05963,14.28154,Schwedt,DE
2,50.5742,12.3897,Lengenfeld,DE
2,50.89678,12.35339,Schmölln,DE
2,51.39678,12.22141,Schkeuditz,DE
2,46.70893,11.65638,Bressanone/Brixen,IT
2,51.12014,15.28768,Lubań,PL
2,50.34371,16.87946,Lądek Zdrój,PL
2,53.92921,14.45097,Międzyzdroje,PL
2,48.208,16.372,Hotel Royal,AT
2,53.69965,10.77256,Ratzeburg,DE
2,48.08111,7.355,Colmar,FR
2,51.10654,13.66047,Radebeul,DE
2,53.72495,18.93114,Kwidzyn,PL
2,51.05,13.0167,Kriebstein,DE
2,48.20997,8.75949,Schömberg,DE
2,50.84123,15.77894,Mysłakowice,PL
2,51.1832,14.01416,Pulsnitz,DE
2,47.85602,12.34623,Prien am Chiemsee,DE
2,51.71466,12.80663,Pretzsch,DE
2,52.92382,14.86785,Myślibórz,PL
2,37.50371,15.07977,Monastery of San Nicolò l'Arena,IT
2,52.8667,11.4833,Arendsee (Altmark),DE
2,52.32333,9.20311,Stadthagen,DE
2,51.85186,11.58508,Staßfurt,DE
2,48.36241,8.63309,Sulz am Neckar,DE
2,53.43989,13.92242,Nieden,DE
2,52.39006,13.73884,Neu Zittau,DE
2,54.90277,20.67352,"Nekrassowo (Kaliningrad, Gurjewsk)",RU
2,59.43696,24.75353,Tallinn,EE
2,50.77368,6.22595,Stolberg,DE
2,51.35248,13.2266,Strehla,DE
2,53.76921,19.37439,Kamieniec,PL
2,51.19807,6.68504,Neuss,DE
2,53.69993,7.70288,Neuharlingersiel,DE
2,52.16348,9.94482,Steuerwald,DE
2,52.97516,13.82973,Neugrimnitz,DE
2,47.64564,9.14973,Girsberg,CH
2,51.60474,10.69783,Sülzhayn,DE
2,50.28857,9.36404,Bad Soden,DE
2,52.34373,12.68337,Netzen,DE
2,49.18912,9.22527,Neckarsulm,DE
2,50.64284,10.02385,Tann,DE
2,48.79948,11.22586,Nassenfels,DE
2,47.85105,9.0091,Stockach,DE
2,53.71236,11.82678,Sternberg,DE
2,51.37505,13.75982,Ortrand,DE
2,49.05667,9.89917,Obersontheim,DE
2,54.29576,10.90156,Oldenburg in Holstein,DE
2,53.63152,19.66717,Rudzienice,PL
2,52.2414,9.10255,Bad Eilsen,DE
2,50.82882,10.73407,Ohrdruf,DE
2,52.3464,14.83227,Rzepin,PL
2,51.41626,16.4251,Ścinawa,PL
2,50.86064,13.17164,Oederan,DE
2,51.76864,15.81396,Siedlisko,PL
2,51.02237,11.47918,Oberroßla,DE
2,53.70828,7.15819,Norderney,DE
2,9.56348,76.82222,Mukkāli,IN
2,18.28224,-77.54095,Stettin,JM
2,49.83577,9.13101,Obernburg am Main,DE
2,49.06556,8.80306,Oberderdingen,DE
2,51.44308,11.69291,Stedten,DE
2,52.90859,15.11238,Karsko,PL
2,50.85138,15.85957,Karpniki,PL
2,52.15045,7.33664,Steinfurt,DE
2,49.88958,15.48853,Žleby,CZ
2,40.11059,-88.20727,Urbana,US
2,48.5777,10.5096,Dillingen a.d.Donau,DE
2,46.3,24.6,Domald,RO
2,48.8484,10.50555,Nördlingen,DE
2,47.35871,15.10015,Göss,AT
2,46.75027,13.17982,Greifenburg,AT
2,47.35,13.2,St Johann im Pongau,AT
2,46.78333,15.53333,Grottenhof,AT
2,24.97916,32.87722,Edfu,EG
2,49.92901,10.87539,Hallstadt,DE
2,51.05719,12.55746,Frohburg,DE
2,51.94987,14.71447,Guben,DE
2,1.62198,7.39886,Príncipe,ST
2,19.42847,-99.12766,Mexico City,MX
2,53.29629,8.16161,Hahn,DE
2,49.11663,10.75971,Gunzenhausen,DE
2,48.45599,10.27695,Günzburg,DE
2,45.98745,9.26199,Bellagio,IT
2,54.22146,10.83478,Güldenstein,DE
2,43.5283,5.44973,Aix-en-Provence,FR
2,48.78674,10.68927,Harburg,DE
2,51.65227,9.8305,Hardegsen,DE
2,27.18096,31.18368,Assiut,EG
2,50.23557,11.71589,Helmbrechts,DE
2,47.77439,16.32841,Bad Sauerbrunn,AT
2,46.68667,15.24722,Eibiswald,AT
2,51.30208,11.21816,Heldrungen,DE
2,47.95,13.23333,Neumarkt am Wallersee,AT
2,31.20176,29.91582,Alexandria,EG
2,47.53333,14.88333,Eisenerz,AT
2,47.23306,9.6,Feldkirch,AT
2,48.46695,8.41371,Freudenstadt,DE
2,47.18172,15.49192,Sankt Radegund bei Graz,AT
2,47.15202,11.34922,Fulpmes,AT
2,47.23088,16.62155,Szombathely,HU
2,50.33739,8.75591,Friedberg,DE
2,52.23579,8.92244,Hausberge,DE
2,48.90617,8.50412,Karlsbad,DE
2,49.65083,8.78472,Fürth,DE
2,11.57694,-15.47611,Bolama,GW
2,50.06419,8.15312,Frauenstein,DE
2,47.64168,15.86924,Maria Schutz,AT
2,51.67194,7.825,Kreisfreie Stadt Hamm,DE
2,37.22283,29.23071,Olukbaşı,TR
2,47.67194,13.61583,Lauffen,AT
2,51.63281,11.62669,Gerbstedt,DE
2,36.8192,45.2335,Sarv Kānī,IR
2,48.2,16.25,Mariabrunn,AT
2,48.56289,2.24553,Avrainville,FR
2,53.79644,-1.5477,Leeds,GB
2,48.79993,2.33256,Arcueil,FR
2,53.99416,11.83949,Gerdshagen,DE
2,47.77306,15.31639,Mariazell,AT
2,51.5,10.5,Germany,DE
2,52.29778,104.29639,Irkutsk,RU
2,46.70806,15.77472,Mureck,AT
2,51.7984,10.1878,Gittelde,DE
2,58.73333,5.7,Time,NO
2,-33.92584,18.42322,Cape Town,ZA
2,45.75372,21.22571,Timișoara,RO
2,52.31667,11.76667,Rogätz,DE
2,52.01792,9.41905,Grohnde,DE
2,52.48338,13.26586,Grunewald,DE
2,53.03333,8.53333,Ganderkesee,DE
2,48.18623,16.2965,Hietzing,AT
2,49.86899,8.9321,Groß-Umstadt,DE
2,47.48333,10.71667,Reutte,AT
2,53.20829,14.39226,Gartz,DE
2,-29.81708,-57.42974,Bonpland,AR
2,47.16667,14.66667,Judenburg,AT
2,47.21667,12.71667,Kesselfall Alpenhaus,AT
2,37.88637,139.00589,Niigata,JP
2,38.69105,-9.32215,Carcavelos,PT
2,33.89332,35.50157,Beirut,LB
2,47.25273,7.50692,Weissenstein,CH
2,47.32738,0.99186,Bléré,FR
2,37.13772,-8.01968,Loulé,PT
2,54.28333,9.16667,Hennstedt,DE
2,50.27917,10.72448,Heldburg,DE
2,46.90413,18.058,Siófok,HU
2,51.36918,7.92605,Hövel,DE
2,47.90815,10.57177,Irsee,DE
2,48.43929,17.71165,Trakovice,SK
2,39.56805,-96.20195,Neuchatel,US
2,51.12551,6.66132,Hülchrath,DE
2,47.9833,9.11667,Meßkirch,DE
2,48.82361,17.19093,Vrádište,SK
2,47.94602,11.29326,Feldafing,DE
2,52.09211,11.65495,Fermersleben,DE
2,53.92099,9.51529,Itzehoe,DE
2,49.79324,5.06703,Bouillon,BE
2,48.96585,8.60573,Königsbach-Stein,DE
2,12.77944,45.03667,Aden,YE
2,51.05,3.71667,Ghent,BE
2,52.21847,10.6424,Sickte,DE
2,47.08333,11.46667,Steinach am Brenner,AT
2,50.87967,4.70078,Leuven,BE
2,52.216,13.44909,Zossen,DE
2,51.54591,7.87548,Büderich,DE
2,50.45413,3.95229,Mons,BE
2,51.25627,7.14816,Wuppertal,DE
2,58.14679,7.99736,Kristiansand,NO
2,46.36917,14.11361,Bled,SI
2,45.89861,16.84889,Bjelovar,HR
2,48.76751,10.79639,Kaisheim,DE
2,48.42512,14.27451,Politischer Bezirk Urfahr-Umgebung,AT
2,51.49635,-0.11152,Lambeth,GB
2,51.92664,9.64282,Eschershausen,DE
2,50.37007,8.0223,Diez,DE
2,52.5,10.76667,Jembke,DE
2,51.18386,10.05329,Eschwege,DE
2,52.43333,13.25,Zehlendorf,DE
2,47.22534,15.23615,Übelbach,AT
2,51.79337,12.95762,Jessen,DE
2,47.0,11.5,Tyrol,AT
2,50.70574,10.29759,Zillbach,DE
2,49.75394,9.51538,Wertheim,DE
2,48.84751,10.37341,Flochberg,DE
2,-33.86785,151.20732,Sydney,AU
2,19.56667,-72.45,Chaillot,HT
2,54.301,11.00658,Heringsdorf,DE
2,46.87556,15.90861,Bad Gleichenberg,AT
2,50.16587,12.12927,Selb,DE
2,41.7578,-4.69848,Cigales,ES
2,48.13333,16.15,Breitenfurt bei Wien,AT
2,47.77758,12.15822,Hinterhör,DE
2,48.59523,8.86648,Herrenberg,DE
2,47.41641,8.08508,Biberstein,CH
2,50.09581,8.53861,Höchst,DE
2,49.54361,8.36389,Kreisfreie Stadt Frankenthal (Pfalz),DE
2,10.23535,-67.59113,Maracay,VE
2,49.78695,8.70888,Frankenhausen,DE
2,47.17274,13.09871,Bad Hofgastein,AT
2,53.00767,9.6178,Hiddingen,DE
2,59.89073,10.52774,Sandvika,NO
2,51.31667,9.41667,Schloß Wilhelmshöhe,DE
2,50.60715,3.38932,Tournai,BE
2,47.36667,15.06667,Donawitz,AT
2,50.85,10.7,Hohenkirchen,DE
2,51.34708,7.57526,Hohenlimburg,DE
1,52.22338,18.25121,Konin,PL
1,45.4121,12.36112,San Lazzaro degli Armeni,IT
1,52.0,20.0,Poland,PL
1,59.20962,9.60897,Skien,NO
1,44.27763,7.39763,Valdieri,IT
1,45.44045,12.32632,Venice,IT
1,54.46642,21.12918,Kurortnoye,RU
1,59.67361,10.60639,Oscarsborg,NO
1,55.83651,13.31527,Eslöv,SE
1,50.78779,11.7101,"Wasserschloss Wolfersdorf Zur fröhlichen Wiederkunft,",DE
1,54.53921,17.75012,Lębork,PL
1,41.79435,-8.85463,Âncora,PT
1,54.19438,16.17222,Koszalin,PL
1,53.86418,21.30468,Mercure Mrongovia Resort & Spa,PL
1,50.79313,15.83559,Kowary,PL
1,-27.68159,29.56686,Memel,ZA
1,46.82295,13.60447,Millstatt,AT
1,47.20835,10.64228,Schönwies,AT
1,48.40751,15.51978,Dürnstein,AT
1,59.61709,11.08559,Spydeberg,NO
1,48.04261,16.15292,Heiligenkreuz,AT
1,-21.1,55.6,Réunion,RE
1,54.06312,19.43859,Krzewsk,PL
1,52.67562,18.33131,Kruszwica,PL
1,59.28391,11.10962,Sarpsborg,NO
1,46.61329,14.17326,Maria Wörth,AT
1,53.06783,14.99625,Krasne,PL
1,48.11895,16.25736,Perchtoldsdorf,AT
1,54.85906,20.79139,Chaykino,RU
1,54.71667,20.41667,Gorod Kaliningrad,RU
1,58.85244,5.73521,Sandnes,NO
1,61.45217,5.85717,Førde,NO
1,46.82171,13.30575,Sachsenburg,AT
1,43.36859,-1.79622,Hondarribia,ES
1,58.6,6.11667,Bjerkreim,NO
1,46.74715,6.65231,Valeyres-sous-Ursins,CH
1,59.85667,10.46596,Hvalstad,NO
1,47.05353,21.93633,Municipiul Oradea,RO
1,51.79046,14.77335,Brody,PL
1,52.51853,13.34178,Hansaviertel,DE
1,47.55328,14.32596,Selzthal,AT
1,63.87826,11.28424,Inderøy,NO
1,48.958,11.71844,Emmerthal,DE
1,50.96639,7.00384,Mülheim,DE
1,50.8804,10.83879,Burg Gleichen,DE
1,47.65735,13.92757,Grundlsee,AT
1,51.73062,15.82362,Bytom Odrzański,PL
1,40.58254,-4.12846,El Escorial,ES
1,59.66858,9.65017,Kongsberg,NO
1,53.16905,15.42054,Choszczno,PL
1,52.0958,8.51166,Jöllenbeck,DE
1,42.84998,-2.67268,Vitoria-Gasteiz,ES
1,58.8693,9.41494,Kragerø,NO
1,60.53369,8.20539,Geilo,NO
1,59.2181,10.9298,Fredrikstad,NO
1,46.64914,6.45335,Moiry,CH
1,40.71551,14.48914,Castellammare di Stabia,IT
1,43.04339,-2.25673,Ormaiztegi,ES
1,50.77165,8.56901,Blankenstein,DE
1,59.56783,8.56703,Flatdal,NO
1,50.48592,8.26155,Schloss Weilburg,DE
1,52.11692,11.66667,Cracau,DE
1,63.05547,9.21151,Rindal,NO
1,38.55041,26.56543,İnecik,TR
1,42.39996,-8.80698,Sanxenxo,ES
1,59.12478,11.38754,Halden,NO
1,43.1016,-2.99729,Luiaondo,ES
1,61.89248,9.47849,Høvringen,NO
1,46.77791,23.60512,Municipiul Cluj-Napoca,RO
1,51.12992,16.13411,Warmątowice,PL
1,50.70196,11.02,Gräfinau,DE
1,54.61218,18.35445,Ciechocino,PL
1,59.26754,10.40762,Tønsberg,NO
1,54.58972,22.02861,Vesëlovka,RU
1,51.66638,16.53494,Góra,PL
1,63.5189,7.95336,Veiholmen,NO
1,46.48772,11.81358,Passo Pordoi,IT
1,48.04601,15.56043,Eschenau,AT
1,49.45395,11.07787,Frauenkirche,DE
1,46.73781,12.17266,Niederdorf,IT
1,53.48411,18.75366,Grudziądz,PL
1,46.0693,13.23715,Udine,IT
1,59.28472,8.09037,Veum,NO
1,48.40071,16.02388,Stetteldorf am Wagram,AT
1,50.52541,16.87921,Kamieniec Ząbkowicki,PL
1,48.66693,2.62136,Grégy-sur-Yerre,FR
1,52.66415,14.7755,Kamień Wielki,PL
1,54.03515,15.87739,Karlino,PL
1,-20.40028,57.59667,Rose Belle,MU
1,69.6489,18.95508,Tromsø,NO
1,51.69746,15.91541,Brzeg Głogowski,PL
1,41.64931,13.61739,Civitavecchia,IT
1,62.22116,10.66141,Auma,NO
1,59.37613,8.03645,Åmdals verk,NO
1,50.97902,15.718,Czernica,PL
1,50.56833,12.99661,Buchholz,DE
1,53.13933,17.33199,Dąbki,PL
1,46.69884,11.93104,San Vigilio,IT
1,46.99291,15.35249,Haselsdorf-Tobelbad,AT
1,52.83831,15.83079,Drezdenko,PL
1,46.06346,23.57494,Municipiul Alba Iulia,RO
1,48.07012,13.4803,Frankenburg am Hausruck,AT
1,47.52332,12.42326,St. Johann in Tirol,AT
1,51.83058,10.79502,Wernigerode Castle,DE
1,62.10766,10.63073,Alvdal,NO
1,47.713,13.62167,Bad Ischl,AT
1,50.06509,14.41711,Vysehrad,CZ
1,45.93432,13.61834,Province of Gorizia,IT
1,50.98479,12.43678,Frauenfels,DE
1,47.07398,10.96951,Längenfeld,AT
1,48.73215,15.2773,Schwarzenau,AT
1,53.1111,14.0917,Mark Landin,DE
1,46.61254,13.8529,Villach,AT
1,50.73687,8.28733,Dillenburg,DE
1,41.63526,-70.92701,New Bedford,US
1,51.79637,9.39737,Höxter,DE
1,42.3751,-71.10561,Cambridge,US
1,51.2258,7.63425,Lüdenscheid,DE
1,55.08392,21.87851,Sovetsk,RU
1,54.93987,20.15479,Svetlogorsk,RU
1,45.7676,11.7357,Bassano del Grappa,IT
1,41.53815,-72.80704,Meriden,US
1,50.36545,9.5829,Schlüchtern,DE
1,54.19609,37.61822,Tula,RU
1,50.1507,8.5368,Schwalbach am Taunus,DE
1,50.22347,8.25373,Idstein,DE
1,55.08093,21.90911,Tyl’zha,RU
1,56.13655,40.39658,Vladimir,RU
1,54.56482,20.53407,Vladimirovo,RU
1,60.70763,28.75283,Vyborg,RU
1,50.4167,9.0,Nidda,DE
1,55.17354,21.54328,Yasnoye,RU
1,35.89256,-86.92639,Southall,US
1,42.32509,-72.6412,Northampton,US
1,42.27756,-83.74088,Ann Arbor,US
1,45.24831,-83.69847,Posen Township,US
1,42.15926,-74.15736,Elka Park,US
1,58.20222,30.58982,Mshaga Yamskaya,RU
1,54.63056,22.57139,Nesterov,RU
1,58.52131,31.27104,Veliky Novgorod,RU
1,40.29867,-83.06797,Delaware,US
1,52.2316,11.00176,Helmstedt,DE
1,40.81621,-73.43234,West Hills,US
1,54.41056,22.01167,Ozërsk,RU
1,51.81883,9.85223,Einbeck,DE
1,52.87493,8.7416,Bassum,DE
1,57.8136,28.3496,Pskov,RU
1,52.60763,8.3663,Diepholz,DE
1,56.73934,38.85626,Pereslavl'-Zalesskiy,RU
1,58.01046,56.25017,Perm,RU
1,42.88645,-78.87837,Buffalo,US
1,53.46604,9.69124,Buxtehude,DE
1,51.78655,6.1375,Kleve,DE
1,54.86205,21.10279,Polessk,RU
1,45.5608,-94.16249,Saint Cloud,US
1,54.95893,20.47668,Zelenogradsk,RU
1,54.61403,21.22722,Znamensk,RU
1,19.31532,-71.69239,Restauración,DO
1,56.65,23.71278,Jelgava,LV
1,-33.036,-71.62963,Valparaíso,CL
1,18.5154,-73.71777,Jeudi,HT
1,50.1408,11.251,Burgkunstadt,DE
1,9.93085,-74.2774,Ibagué,CO
1,6.25184,-75.56359,Medellín,CO
1,10.60156,-66.93293,La Guaira,VE
1,49.2833,10.2667,Schillingsfürst,DE
1,25.69893,32.6421,Luxor,EG
1,49.5455,10.2293,Uffenheim,DE
1,50.03763,10.5186,Haßfurt,DE
1,24.09082,32.89942,Aswān,EG
1,49.71,10.2167,Mainbernheim,DE
1,25.05823,-77.34306,Nassau,BS
1,52.6493,9.23655,Nienburg/Weser,DE
1,14.60365,-61.07418,Fort-de-France,MQ
1,49.8033,9.6915,"Remlingen, Markt",DE
1,29.98333,31.13333,Pyramids of Giza,EG
1,19.03793,-98.20346,Puebla City,MX
1,48.8832,10.4756,"Wallerstein, Markt",DE
1,50.1831,11.7857,Münchberg,DE
1,-13.74406,-65.42688,Santa Ana de Yacuma,BO
1,49.82641,11.8382,Neustadt am Kulm,DE
1,51.24595,9.80173,Großalmerode,DE
1,46.10922,12.89272,Spilimbergo,IT
1,56.52129,22.88903,Lielauce,LV
1,56.50474,21.01085,Liepāja,LV
1,58.0,26.0,Livonija,EE
1,50.55179,9.68328,Fulda,DE
1,51.05845,8.7833,Frankenberg (Eder),DE
1,39.75459,-84.29068,Montgomery,US
1,39.12711,-84.51439,Cincinnati,US
1,39.36415,-74.42306,Atlantic City,US
1,48.05277,10.86893,Landsberg am Lech,DE
1,50.78583,7.87455,Betzdorf,DE
1,37.41339,-94.32767,Esrom,US
1,49.52005,9.324,Buchen (Odenwald),DE
1,48.63485,8.0523,Achern,DE
1,47.95937,8.49893,Donaueschingen,DE
1,47.6884,10.04095,Isny im Allgäu,DE
1,34.53814,-84.90855,New Echota Historical Site,US
1,23.0,-102.0,Mexico,MX
1,54.1215,10.6468,Eutin,DE
1,54.48468,9.06684,Husum,DE
1,53.6993,10.75385,Ratzeburg,DE
1,44.8272,-89.16956,Wittenberg,US
1,52.6052,11.86043,Stendal,DE
1,43.18379,-2.26576,Azpeitia,ES
1,52.52635,11.39975,Gardelegen,DE
1,48.18494,16.31229,Schonbrunn Palace,AT
1,50.6912,10.9199,Ilmenau,DE
1,47.3953,8.53721,Zürich (Kreis 6) / Unterstrass,CH
1,50.5009,8.39557,Braunfels,DE
1,47.51262,8.684,Wülflingen (Kreis 6) / Härti,CH
1,47.59469,8.64291,Wespersbühl,CH
1,51.48365,-0.60502,Windsor Castle,GB
1,54.1667,10.3667,Wittmoldt,DE
1,53.05087,8.62913,Delmenhorst,DE
1,52.16045,-0.70312,England,GB
1,53.5545,8.5933,Bremerhaven,DE
1,53.69571,31.71233,Krychaw,BY
1,53.9168,30.3449,Mogilev,BY
1,55.4879,28.7856,Polatsk,BY
1,54.2131,30.2877,Shklow,BY
1,43.70011,-79.4163,Toronto,CA
1,43.13503,-1.67031,Doneztebe-Santesteban,ES
1,51.9598,12.093,Zerbst,DE
1,46.35667,6.14278,Divonne-les-Bains,FR
1,59.56924,7.98896,Vinje,NO
1,51.6,13.5,Schönborn,DE
1,45.84218,9.10514,Blevio,IT
1,53.6333,13.1667,Breesen,DE
1,51.1,17.0333,Novotel Wroclaw,PL
1,53.65,13.1167,Wildberg,DE
1,61.05871,28.18871,Lappeenranta,FI
1,51.93596,8.87828,Detmold,DE
1,51.5258,11.5345,"Eisleben, Lutherstadt",DE
1,47.62667,7.45917,Brinckheim,FR
1,48.62944,-2.25778,Saint-Cast-le-Guildo,FR
1,52.15,11.1833,Ummendorf,DE
1,42.40389,2.47917,Prats-de-Mollo-la-Preste,FR
1,51.0667,11.2833,Schwerstedt,DE
1,50.6333,11.2,Schwarzburg,DE
1,43.4709,-0.9253,Salies-de-Béarn,FR
1,52.36865,12.9188,Werder (Havel),DE
1,54.35,13.4833,Putbus,DE
1,49.1868,2.4614,Chantilly,FR
1,49.10635,-122.82509,Surrey,CA
1,56.19976,24.12953,Gedučiai,LT
1,51.22492,6.77425,Düsseldorf,DE
1,59.99541,29.76668,Kronstadt,RU
1,48.1394,7.61576,Sasbach am Kaiserstuhl,DE
1,48.1,8.2,Schönwald im Schwarzwald,DE
1,54.44481,20.29264,Kornëvo,RU
1,59.97354,29.33929,Krasnaya Gorka,RU
1,48.51558,44.6037,Krasnoarmeysk,RU
1,54.39417,22.375,Krasnoles'ye,RU
1,59.73833,30.08944,Krasnoye Selo,RU
1,54.94222,22.48972,Krasnoznamensk,RU
1,37.35411,-121.95524,Santa Clara,US
1,60.95451,29.13391,Kamennogorsk,RU
1,51.73733,36.18735,Kursk,RU
1,61.0,31.5,Lake Ladoga,RU
1,59.91667,30.25,St.-Petersburg,RU
1,55.01279,20.61732,Lesnoye,RU
1,49.35834,10.69777,Bruckberg,DE
1,49.05,10.5667,Röckingen,DE
1,49.6,11.5167,Hartenstein,DE
1,49.00252,10.66266,Westheim,DE
1,31.75872,-106.48693,El Paso,US
1,54.75,21.5,Kaliningrad Oblast,RU
1,51.17275,7.09395,Solingen,DE
1,50.58279,9.73813,Petersberg,DE
1,55.51794,21.62398,Švėkšna,LT
1,58.94306,23.54139,Haapsalu,EE
1,58.77889,24.82583,Järvakandi,EE
1,59.37722,28.19028,Narva,EE
1,59.35667,24.05306,Paldiski,EE
1,58.38588,24.49711,Pärnu,EE
1,54.8421,46.5813,Alatyr',RU
1,50.93835,6.95427,Cologne,DE
1,55.42112,38.26188,Bronnitsy,RU
1,49.8047,8.342,Guntersblum,DE
1,56.13222,47.25194,Cheboksary,RU
1,54.63889,22.73306,Chernyshevskoye,RU
1,54.42688,20.82696,Domnovo,RU
1,50.8828,9.8666,Friedewald,DE
1,50.5667,7.83333,Freilingen,DE
1,44.15194,43.46972,Georgiyevsk,RU
1,59.74832,29.62205,Gostilitsy,RU
1,49.44947,7.79483,Kaiserslautern,DE
1,49.4333,7.36667,Brücken (Pfalz),DE
1,18.47186,-69.89232,Santo Domingo,DO
1,43.15306,22.58611,Pirot,RS
1,60.61511,8.29398,Hol,NO
1,54.26743,21.72855,Wilkowo,PL
1,46.00185,8.74512,Luino,IT
1,54.18064,21.57719,Surwile,PL
1,53.78473,22.62423,Stacze,PL
1,53.60043,21.34738,Spychowo,PL
1,53.84569,21.1401,Sorkwity,PL
1,53.32061,20.58204,Smolany Żardawy,PL
1,51.95485,20.15837,Skierniewice,PL
1,49.55573,22.2056,Sanok,PL
1,45.13617,10.02797,Cremona,IT
1,39.22687,41.73259,Demirci,TR
1,53.75982,21.13727,Rybno,PL
1,41.71667,12.7,Lake Nemi,IT
1,49.62617,20.45725,Roztoka,PL
1,54.28938,22.5127,Rogajny,PL
1,53.20257,21.18166,Ramiona,PL
1,46.57603,11.67176,Urtijëi,IT
1,43.48539,13.48222,Osimo,IT
1,54.16909,21.64886,Pniewo,PL
1,53.63578,19.11055,Klecewo,PL
1,51.07085,16.42971,Drogomiłowice,PL
1,45.50694,12.64694,Lido di Jesolo,IT
1,41.21408,13.57082,Gaeta,IT
1,46.42302,12.361,Pieve di Cadore,IT
1,46.92724,7.57076,Worb,CH
1,46.72878,12.22225,Toblach,IT
1,44.53326,7.9451,Dogliani,IT
1,46.31777,11.27337,Neumarkt,IT
1,45.82082,7.23137,Etroubles,IT
1,54.77348,-1.50638,Sherburn Village,GB
1,53.01905,-1.47847,Belper,GB
1,40.05594,17.99088,Gallipoli,IT
1,53.9171,15.2028,Gryfice,PL
1,45.57889,10.71763,Garda,IT
1,45.69137,10.18635,Gardone Val Trompia,IT
1,45.94088,13.62167,Gorizia,IT
1,45.8925,13.50167,Gradisca d'Isonzo,IT
1,41.14324,28.46154,Çatalca,TR
1,42.35055,13.39954,L’Aquila,IT
1,54.35305,22.69449,Żytkiejmy,PL
1,50.4655,18.842,Tarnowskie Góry,PL
1,50.52052,20.52649,Pińczów,PL
1,54.07946,21.5232,Parcz,PL
1,49.67353,12.16606,Weiden i.d.OPf.,DE
1,45.30147,10.20984,Pavone del Mella,IT
1,44.33456,9.21204,Santa Margherita Ligure,IT
1,54.03811,21.76441,Giżycko,PL
1,54.29208,21.18731,Garbno,PL
1,40.72586,8.55552,Sassari,IT
1,44.64808,7.65677,Savigliano,IT
1,44.30905,8.47715,Savona,IT
1,49.82608,22.39117,Dubiecko,PL
1,44.5983,10.69558,Scandiano,IT
1,54.08012,21.59015,Doba,PL
1,45.69798,9.66895,Bergamo,IT
1,54.12161,21.54282,Dłużec,PL
1,54.29192,21.87135,Budzewko,PL
1,44.43333,9.41667,Sopralacroce,IT
1,46.53333,10.45,"Stelvio, Giogo dello",IT
1,40.46438,17.24707,Taranto,IT
1,46.50567,13.58689,Tarvisio,IT
1,51.3246,21.70624,Babin,PL
1,45.66673,12.2416,Treviso,IT
1,70.66313,23.68092,Hammerfest,NO
1,40.60565,14.37402,Sant'Agata sui Due Golfi,IT
1,50.63008,20.6167,Gołuchów,PL
1,41.23537,14.49832,San Salvatore Telesino,IT
1,47.11412,7.19418,Tüscherz,CH
1,53.80967,21.94811,Orzysz,PL
1,53.63405,21.97969,Orłowo,PL
1,45.05242,9.69342,Piacenza,IT
1,40.62806,14.41729,Piano di Sorrento,IT
1,46.42466,12.36416,Pieve di Cadore,IT
1,53.77995,20.49416,Olsztyn,PL
1,46.62545,6.43713,Cuarnens,CH
1,59.94078,30.31277,Hermitage Museum,RU
1,40.75,14.48333,Pompeii,IT
1,53.64728,22.45537,Grajewo,PL
1,40.74574,14.49698,Pompei,IT
1,46.06166,6.95889,Le Châtelard,CH
1,54.08855,21.92227,Kruklanki,PL
1,53.49479,21.46128,Kowalik,PL
1,53.4659,21.28112,Klon,PL
1,45.06982,11.79022,Rovigo,IT
1,53.61789,21.82426,Jagodne,PL
1,53.74693,20.13804,Grazymy,PL
1,47.42214,9.37554,St. Gallen,CH
1,46.45623,11.11785,Castelfondo,IT
1,41.78392,14.10653,Castel di Sangro,IT
1,47.20838,7.53009,Solothurn,CH
1,49.8775,5.88722,Neunhausen,LU
1,50.82837,6.90817,Schloß Augustusburg,DE
1,45.90321,21.54309,Nadăș,RO
1,47.25,27.25,Iaşi,RO
1,47.45,26.3,Fălticeni,RO
1,46.19843,6.18642,Chêne-Bougeries,CH
1,53.08464,14.13666,Landin,DE
1,45.64861,25.60613,Brasov,RO
1,45.51667,25.35,Bran,RO
1,52.06667,10.25,Heere,DE
1,54.18143,7.8863,Helgoland,DE
1,51.87713,9.19538,Schieder-Schwalenberg,DE
1,46.06667,23.58333,Alba Iulia,RO
1,51.68333,10.1,Katlenburg-Lindau,DE
1,48.78333,34.23333,Staryy Orlik,UA
1,48.43333,8.21667,Bad Peterstal-Griesbach,DE
1,51.98641,7.17724,Schloß Varlar,DE
1,48.137,11.57521,Altstadt,DE
1,51.44772,-0.04143,Honor Oak Park,GB
1,51.45668,-0.23518,South West London,GB
1,51.36306,7.50778,Kreisfreie Stadt Hagen,DE
1,45.95646,23.571,Sebeş,RO
1,44.65587,10.9192,Modena,IT
1,-20.39484,-43.50517,Ouro Preto,BR
1,49.7525,11.8266,Eschenbach i.d.OPf.,DE
1,5.86638,-55.16682,Paramaribo,SR
1,3.61667,-59.66667,Pirara,GY
1,16.89014,-24.98042,Mindelo,CV
1,-34.09871,18.38562,Good Hope,ZA
1,42.29523,12.40917,Civita Castellana,IT
1,50.07806,8.43622,"Hofheim am Taunus, Kreisstadt",DE
1,46.28731,7.09799,Alpe des Chaux,CH
1,51.4036,-0.33749,Hampton Court,GB
1,60.16952,24.93545,Helsinki,FI
1,60.17556,24.93417,Helsinki,FI
1,47.33917,12.79821,Prielau,AT
1,47.9275,12.98083,Gastein,AT
1,46.30333,5.94222,Lélex,FR
1,48.95167,7.76889,Gœrsdorf,FR
1,53.4425,13.37806,Landkreis Mecklenburg-Strelitz,DE
1,49.76917,6.675,Kreisfreie Stadt Trier,DE
1,45.6726,18.978,Apatin,RS
1,44.77842,17.19386,Banja Luka,BA
1,45.79611,18.61,Branjin Vrh,HR
1,46.45472,11.26178,San Michele,IT
1,44.22637,17.66583,Travnik,BA
1,46.20917,16.41917,Varaždinske Toplice,HR
1,45.35161,19.00225,Vukovar,HR
1,47.06859,7.73425,Affoltern im Emmental,CH
1,44.42667,18.03778,Žepče,BA
1,45.76072,11.00458,Ala,IT
1,47.12815,7.27801,Brügg,CH
1,40.6349,14.60238,Amalfi,IT
1,46.40924,6.22979,Duillier,CH
1,42.2,24.33333,Pazardzhik,BG
1,47.57335,8.52607,Eglisau,CH
1,46.81971,8.43409,Engelberg,CH
1,47.30468,8.60718,Erlenbach (ZH),CH
1,41.31429,16.28165,Barletta,IT
1,46.77642,7.68322,Homberg,CH
1,46.71667,12.11667,Prags,IT
1,46.45932,9.7956,Silvaplana,CH
1,40.63215,17.93607,Brindisi,IT
1,47.38878,8.04826,Aarau,CH
1,42.15,24.75,Plovdiv,BG
1,44.60795,33.52134,Sebastopol,UA
1,46.15278,16.06778,Lobor,HR
1,38.7125,-9.14306,São Paulo,PT
1,45.52639,19.06028,Erdut,HR
1,43.94295,18.08132,Kiseljak,BA
1,42.42067,18.76825,Kotor,ME
1,46.075,15.56028,Kozje,SI
1,46.86667,20.55,Szarvas,HU
1,46.09333,15.84333,Krapinske Toplice,HR
1,43.82695,17.00746,Livno,BA
1,44.53056,14.46861,Mali Lošinj,HR
1,46.1226,15.1919,Rimske Toplice,SI
1,48.71395,21.25808,Košice,SK
1,45.54,17.88472,Orahovica,HR
1,45.55111,18.69389,Osijek,HR
1,45.52778,13.57056,Piran,SI
1,45.48278,13.62694,Piran,SI
1,45.22567,13.59511,Poreč,HR
1,46.42005,15.87018,Ptuj,SI
1,45.32673,14.44241,Rijeka,HR
1,45.82908,8.82193,Varese,IT
1,-29.12107,26.214,Bloemfontein,ZA
1,53.03548,15.84254,Lipinka,PL
1,51.26586,11.41282,Wiehe,DE
1,49.15127,9.28762,Weinsberg,DE
1,51.6707,12.07338,Weißandt-Gölzau,DE
1,49.03095,10.97221,Weißenburg in Bayern,DE
1,51.31396,11.5508,Weißenschirmbach,DE
1,31.76904,35.21633,Jerusalem,IL
1,53.64104,10.0798,Wellingsbüttel,DE
1,48.87461,10.72452,Wemding,DE
1,51.27831,11.46872,Wendelstein,DE
1,52.86109,11.98268,Werben,DE
1,51.92476,11.86312,Werkleitz,DE
1,51.66446,7.63421,Werne,DE
1,51.31856,6.27528,Wevelinghoven,DE
1,51.92288,9.65299,Wickensen,DE
1,50.98333,11.43333,Wiegendorf,DE
1,49.29504,8.69846,Wiesloch,DE
1,48.2,16.35,Gemeindebezirk Neubau,AT
1,48.62336,8.74518,Wildberg,DE
1,51.78538,13.27638,Wildenau,DE
1,53.52998,8.11253,Wilhelmshaven,DE
1,52.48333,13.31667,Wilmersdorf,DE
1,49.56667,7.85,Winnweiler,DE
1,53.35753,10.21282,Winsen,DE
1,51.34103,9.8554,Witzenhausen,DE
1,50.78833,11.70726,Wolfersdorf,DE
1,47.91289,11.42166,Wolfratshausen,DE
1,51.33801,9.54669,Wolfsanger-Hasenhecke,DE
1,51.41997,10.3633,Worbis,DE
1,52.17093,11.8448,Wörmlitz,DE
1,49.7972,9.15389,Wörth am Main,DE
1,50.28357,8.27716,Würges,DE
1,51.08055,12.79695,Weiditz,DE
1,51.88376,11.17347,Wegeleben,DE
1,47.57223,9.63215,Wasserburg,DE
1,50.66568,13.08206,Warmbad Sanatorium,DE
1,52.96667,9.01667,Thedinghausen,DE
1,50.07609,12.1265,Thiersheim,DE
1,50.02542,11.39348,Thurnau,DE
1,49.88263,12.33112,Tirschenreuth,DE
1,47.86825,12.64335,Traunstein,DE
1,49.4581,10.59361,Trautskirchen,DE
1,51.05,12.41667,Treben,DE
1,53.74384,10.31024,Tremsbüttel,DE
1,47.76977,9.17136,Überlingen,DE
1,48.49436,10.92209,Unterach,DE
1,53.93333,14.08333,Usedom Island,DE
1,51.6569,9.63501,Uslar,DE
1,50.8279,10.02185,Vacha,DE
1,51.08136,11.20935,Vippachedelhausen,DE
1,51.39169,11.30888,Voigtstedt,DE
1,49.25162,6.85873,Völklingen,DE
1,50.70618,11.32082,Volkstedt,DE
1,50.33982,9.59724,Vollmerz,DE
1,47.99679,10.77786,Waal,DE
1,50.25511,9.29564,Wächtersbach,DE
1,51.37574,12.32205,Wahren,DE
1,48.83241,9.31641,Waiblingen,DE
1,50.14591,9.78101,Waizenbach in Unterfranken,DE
1,51.66508,11.47071,Walbeck,DE
1,51.14462,9.87695,Waldkappel,DE
1,51.58333,10.61667,Walkenried,DE
1,51.18207,10.17283,Wanfried,DE
1,53.79002,7.89938,Wangerooge,DE
1,52.1812,10.91972,Warberg,DE
1,50.93903,13.92556,Zehista,DE
1,49.42317,8.75398,Ziegelhausen,DE
1,48.98041,10.6696,Zirndorf,DE
1,47.21667,12.0,Gmünd,AT
1,47.63333,13.86667,Grundlsee,AT
1,47.6,14.63333,Gstatterboden,AT
1,46.87389,14.29167,Gurk,AT
1,47.57673,15.64501,Gutenbrunn,AT
1,47.68333,13.1,Hallein,AT
1,47.56231,13.64912,Hallstatt,AT
1,47.03979,12.84345,Heiligenblut am Großglockner,AT
1,47.60639,14.74503,Hieflau,AT
1,47.46667,12.2,Hohe Salve,AT
1,48.2,16.26667,Penzing,AT
1,47.29841,11.66592,Weerberg,AT
1,47.11667,15.35,Judendorf,AT
1,48.13754,16.24599,Kalksburg,AT
1,48.02415,15.89842,Kaumberg,AT
1,46.93167,15.66194,Kirchbach in Steiermark,AT
1,47.68333,12.38333,Klobenstein,AT
1,48.40921,15.61415,Krems,AT
1,47.54728,15.56248,Krieglach,AT
1,48.3,14.28333,Linz Stadt,AT
1,46.99173,13.1678,Mallnitz,AT
1,47.83861,13.03972,Maria Plain,AT
1,46.55389,14.29556,Maria Rain,AT
1,46.61639,14.16306,Maria Wörth,AT
1,47.71667,16.41667,Marz,AT
1,47.12794,11.45176,Matrei am Brenner,AT
1,48.2,15.26667,Matzleinsdorf,AT
1,47.13451,13.67884,Mauterndorf,AT
1,47.16667,11.86667,Mayrhofen,AT
1,48.16667,16.33333,Meidling,AT
1,47.03849,11.48131,Gries am Brenner,AT
1,48.06667,14.41667,Gleink,AT
1,50.65912,13.22981,Zöblitz,DE
1,47.9628,16.19368,Gainfarn,AT
1,51.5,12.6,Zschepplin,DE
1,51.21516,12.88689,Zschoppach,DE
1,50.84858,12.08635,Zwötzen,DE
1,49.67728,5.79505,Arlon,BE
1,50.87325,5.5184,Bilzen,BE
1,50.6279,6.03647,Eupen,BE
1,51.21551,2.927,Ostend,BE
1,50.80745,4.9378,Tienen,BE
1,50.58907,5.86241,Verviers,BE
1,50.57953,4.53398,Villers-la-Ville,BE
1,50.79484,5.31983,Voort,BE
1,48.3713,13.57412,Andorf,AT
1,46.43333,14.56667,Bad Vellach,AT
1,47.41667,13.21667,Bischofshofen,AT
1,47.65949,15.82151,Breitenstein am Semmering,AT
1,47.00528,11.50836,Brenner Pass,AT
1,48.0242,16.7757,Bruck an der Leitha,AT
1,47.78333,15.31667,Bürgeralpe,AT
1,47.22729,12.82727,Fusch an der Glocknerstraße,AT
1,47.80716,13.779,Ebensee,AT
1,47.46667,10.7,Ruine Ehrenberg,AT
1,47.84565,16.52327,Eisenstadt,AT
1,48.21346,14.47612,Enns,AT
1,46.52694,14.30194,Ferlach,AT
1,47.16667,12.81667,Ferleiten,AT
1,47.15279,11.82212,Finkenberg,AT
1,46.59139,13.98139,Föderlach,AT
1,47.26667,15.31667,Frohnleiten,AT
1,47.05,16.08333,Fürstenfeld,AT
1,53.77545,12.57487,Teterow,DE
1,50.51713,9.23836,Taufstein,DE
1,51.38333,12.48333,Taucha,DE
1,49.77131,11.40784,Pottenstein,DE
1,51.39993,12.64959,Püchau,DE
1,54.35511,13.47634,Putbus,DE
1,52.67502,7.94983,Quakenbrück,DE
1,51.19983,9.64719,Quentel,DE
1,51.21622,12.17222,Rahna,DE
1,52.60659,12.33696,Rathenow,DE
1,50.88329,8.91864,Rauschenberg,DE
1,50.01667,10.83333,Reckendorf,DE
1,50.3,12.05,Regnitzlosau,DE
1,50.62279,12.30344,Reichenbach/Vogtland,DE
1,53.51703,10.2488,Reinbek,DE
1,51.70079,12.6755,Reinharz,DE
1,48.76974,8.93871,Renningen,DE
1,50.06342,10.79922,Rentweinsdorf,DE
1,50.03552,8.08212,Rheingau,DE
1,51.16363,6.45022,Rheydt,DE
1,47.69185,11.40638,Ried,DE
1,53.05679,13.7154,Ringenwalde,DE
1,51.36667,11.21667,Ringleben,DE
1,50.48031,12.79336,Rittersgrün,DE
1,52.32172,12.35329,Rogäsen,DE
1,51.06667,11.4,Rohrbach,DE
1,52.54175,13.03682,Rohrbeck,DE
1,51.56667,10.21667,Rollshausen,DE
1,49.01892,10.0296,Rosenberg,DE
1,50.7,10.21667,Roßdorf,DE
1,47.65,10.71667,Roßhaupten,DE
1,51.88736,12.24192,Roßlau,DE
1,51.19783,12.41447,Rötha,DE
1,51.84226,12.64373,Pratau,DE
1,51.00439,11.98996,Pötewitz,DE
1,47.94734,11.34579,Rottmannshöhe,DE
1,50.69358,11.59229,Pößneck,DE
1,51.28039,9.42739,Nordshausen,DE
1,48.15853,11.49857,Nymphenburg,DE
1,50.90416,12.97141,Oberlichtenau,DE
1,53.09011,8.92879,Oberneuland,DE
1,50.30453,8.6898,Ober-Rosbach,DE
1,47.63293,13.04806,Obersalzberg,DE
1,50.95042,13.99023,Obervogelgesang,DE
1,52.86571,14.04508,Oderberg,DE
1,52.43421,10.98786,Oebisfelde,DE
1,48.41667,9.03333,Ofterdingen,DE
1,52.75577,13.24197,Oranienburg,DE
1,49.70382,8.32419,Osthofen,DE
1,54.44469,12.57677,Ostseebad Prerow,DE
1,49.36667,11.11667,Otterlach,DE
1,47.99607,11.65907,Otterloh,DE
1,52.02337,8.82427,Otternbach,DE
1,53.34189,8.42179,Ovelgönne,DE
1,51.85841,14.41138,Peitz,DE
1,50.93336,12.70422,Penig,DE
1,52.37513,8.96538,Petershagen,DE
1,48.43603,12.74732,Peterskirchen,DE
1,53.43259,7.09556,Pewsum,DE
1,50.07996,10.98978,Pferdsfeld,DE
1,48.40687,10.03773,Pfuhl,DE
1,48.77866,12.87509,Plattling,DE
1,51.02784,13.70869,Plauen,DE
1,50.72202,7.08956,Poppelsdorf,DE
1,52.22961,8.91612,Porta Westfalica,DE
1,51.00397,12.45536,Poschwitz,DE
1,48.47629,8.93528,Rottenburg,DE
1,48.16783,8.62719,Rottweil,DE
1,53.03649,10.39637,Tätendorf,DE
1,49.49392,9.66889,Schweigern,DE
1,53.64273,12.68401,Schwinkendorf,DE
1,52.88872,11.75236,Seehausen,DE
1,48.31055,7.94069,Seelbach,DE
1,53.7,9.56667,Seestermühe,DE
1,50.0432,8.97394,Seligenstadt,DE
1,51.34804,12.43133,Sellerhausen,DE
1,50.01946,12.02891,Sichersreuth,DE
1,48.08829,9.23033,Sigmaringen,DE
1,49.2529,8.87867,Sinsheim,DE
1,51.17343,7.0845,Solingen,DE
1,48.89582,10.9956,Solnhofen,DE
1,52.98638,9.84338,Soltau,DE
1,49.70361,10.02605,Sommerhausen,DE
1,49.17553,10.92453,Spalt,DE
1,50.77596,11.08262,Stadtilm,DE
1,48.00193,11.34416,Starnberg,DE
1,51.2435,13.21437,Stauchitz,DE
1,50.66197,8.73158,Staufenberg,DE
1,51.81538,10.17738,Stauffenburg,DE
1,31.76667,35.5,Makhfar Kālīyah,IL
1,50.55554,13.15803,Steinbach,DE
1,53.93977,11.60778,Steinhausen,DE
1,50.11298,8.90734,Steinheim am Main,DE
1,51.80372,8.20129,Stromberg,DE
1,54.63333,9.78333,Süderbrarup,DE
1,49.60276,10.43563,Sugenheim,DE
1,50.86667,11.61667,Sulza,DE
1,54.91823,8.33113,Sylt,DE
1,50.79245,10.61568,Tambach-Dietharz,DE
1,52.10879,12.19564,Schweinitz,DE
1,50.28464,11.62494,Schwarzenbach am Wald,DE
1,50.92187,13.96362,Rottwerndorf,DE
1,50.61925,10.52971,Schwarza,DE
1,52.46927,13.78631,Rüdersdorf,DE
1,54.41667,13.4,Rügen Island,DE
1,50.89296,10.36573,Ruhla,DE
1,54.7279,9.84793,Rundhof,DE
1,49.31366,6.75154,Saarlouis,DE
1,51.28802,11.16282,Sachsenburg,DE
1,50.1008,8.68556,Sachsenhausen-Nord,DE
1,50.38333,7.41667,Saffig,DE
1,54.17682,10.67397,Sagau,DE
1,53.38333,9.6,Sauensiek,DE
1,51.38131,11.77302,Schafstädt,DE
1,51.62813,10.38215,Scharzfeld,DE
1,50.33915,7.97907,Schaumburg,DE
1,53.16667,9.48333,Scheeßel,DE
1,48.98117,8.13993,Scheibenhardt,DE
1,51.61939,11.21962,Schielo,DE
1,53.53333,10.11667,Schiffbek,DE
1,54.2,9.75,Schleswig-Holstein,DE
1,50.55882,12.95269,Schlettau,DE
1,49.55958,11.34328,Schnaittach,DE
1,50.88333,10.56667,Schnepfenthal,DE
1,51.51843,9.41889,Schöneberg,DE
1,54.33333,10.23333,Schönkirchen,DE
1,50.88372,8.83178,Schönstadt,DE
1,48.22399,8.38583,Schramberg,DE
1,51.4375,11.66823,Schraplau,DE
1,48.1583,11.58616,Schwabing,DE
1,48.79947,9.79809,Schwäbisch Gmünd,DE
1,49.14494,9.05525,Schwaigern,DE
1,47.32925,15.36344,Mixnitz,AT
1,48.42818,14.48444,Neumarkt im Mühlkreis,AT
1,51.29241,14.82107,Niesky,DE
1,54.46427,19.93801,Mamonovo,RU
1,52.18935,-2.22001,Worcester,GB
1,55.04434,9.41741,Aabenraa,DK
1,57.048,9.9187,Aalborg,DK
1,54.95201,9.87216,Augustenborg,DK
1,55.35817,9.48701,Christiansfeld,DK
1,55.97558,12.40314,Fredensborg,DK
1,55.33333,10.5,Funen,DK
1,56.12196,12.31056,Gilleleje,DK
1,55.24943,9.48771,Haderslev,DK
1,56.09027,12.45693,Hornbæk,DK
1,54.90125,10.00609,Lysabild,DK
1,56.4607,10.03639,Randers,DK
1,55.43184,11.55547,Sorø,DK
1,54.88875,12.04102,Stubbekøbing,DK
1,36.91833,8.34389,Vieille Calle,DZ
1,47.2,10.9,Oetz,AT
1,35.85194,14.40722,Girgenti,MT
1,35.91667,14.43333,Malta,MT
1,37.44145,24.91922,Syros,GR
1,35.76727,-5.79975,Tangier,MA
1,39.23054,9.11917,Cagliari,IT
1,39.36313,16.03691,Paola,IT
1,38.11047,15.66129,Reggio Calabria,IT
1,37.4063,-1.58289,Águilas,ES
1,36.83814,-2.45974,Almería,ES
1,38.87789,-6.97061,Badajoz,ES
1,38.92088,-1.72018,Chinchilla de Monte Aragón,ES
1,38.95048,-2.54048,El Bonillo,ES
1,37.26638,-6.94004,Huelva,ES
1,39.72331,-3.30618,Lillo,ES
1,51.48333,-0.6,Windsor,GB
1,51.06513,-1.3187,Winchester,GB
1,51.37178,-0.45975,Weybridge,GB
1,51.4975,-0.1357,City of Westminster,GB
1,46.42863,6.92122,Territet,CH
1,47.57822,8.7512,Thalheim,CH
1,47.51419,8.717,Veltheim (Kreis 5),CH
1,46.29832,7.05631,Villars-sur-Ollon,CH
1,47.29955,9.08657,Wattwil,CH
1,47.15059,7.55657,Wiler,CH
1,46.33122,6.95872,Yvorne,CH
1,46.01998,7.74863,Zermatt,CH
1,52.48142,-1.89983,Birmingham,GB
1,51.87819,0.55292,Braintree,GB
1,50.82838,-0.13947,Brighton,GB
1,51.27904,1.07992,Canterbury,GB
1,53.34312,-1.77506,Castleton,GB
1,52.92277,-1.47663,Derby,GB
1,50.7236,-3.52751,Exeter,GB
1,51.08169,1.16734,Folkestone,GB
1,51.76338,-0.22419,Hatfield,GB
1,52.05684,-2.71482,Hereford,GB
1,51.56565,-0.15904,Highgate,GB
1,56.23052,-5.07474,Inveraray,GB
1,51.26667,0.51667,Maidstone,GB
1,51.61429,-0.24822,Mill Hill,GB
1,55.6519,-3.1888,Peebles,GB
1,50.04861,-5.65773,Porthcurno,GB
1,56.33871,-2.79902,St Andrews,GB
1,51.27223,1.33776,Sandwich,GB
1,56.0,-4.0,Scotland,GB
1,51.65496,-1.97307,Somerford Keynes,GB
1,51.49437,-0.17321,South Kensington,GB
1,36.72016,-4.42034,Málaga,ES
1,38.91611,-6.34366,Mérida,ES
1,28.46824,-16.25462,Tenerife,ES
1,6.0461,80.2103,Galle,LK
1,48.82195,2.22787,Château de Bellevue,FR
1,59.94048,30.31377,Winter Palace,RU
1,25.72374,3.42633,Takoumbaret,DZ
1,51.64487,16.1732,Borek,PL
1,48.85024,16.04869,Znojmo,CZ
1,49.85192,17.86698,Hradec nad Moravicí,CZ
1,45.4659,9.16768,88 Corso Magenta,IT
1,44.33886,142.9611,Nanae,JP
1,46.9807,15.36546,Tobelbad,AT
1,49.41734,8.72117,Villa Charlottenberg. Home of Christian Carl Josias von Bunsen (1791–1860),DE
1,-34.61251,138.71449,Buchfelde,AU
1,50.75684,10.33011,Frauenbreitungen,DE
1,59.34803,10.24793,Ramnes,NO
1,31.558,74.35071,Lahore,PK
1,46.75631,7.60068,Thun,CH
1,49.59794,9.37075,Lindich,DE
1,33.59733,73.0479,Rawalpindi,PK
1,23.15278,85.09258,Sāngor,IN
1,48.41339,13.79934,Unterbuchberg,AT
1,50.24463,11.32798,Rosenberg Fortress,DE
1,46.6149,7.67066,Hubel,CH
1,-14.85195,-66.74954,San Borja,BO
1,46.57569,7.94001,Wengernalp,CH
1,46.41222,9.96512,Diavolezza,CH
1,52.47021,9.22581,Rehburg,DE
1,-18.25,35.0,Mozambique,MZ
1,53.57498,10.01485,Boulevard Hotel Hamburg,DE
1,38.71504,-9.13626,Pensao Nova Goa,PT
1,-12.3426,40.5859,Ibo,MZ
1,7.0151,80.6697,Pundaluoya Town,LK
1,11.93381,79.82979,Puducherry,IN
1,39.8581,-4.02263,Toledo,ES
1,29.39743,79.44686,Nainital,IN
1,38.42539,-6.41734,Zafra,ES
1,32.49094,3.67347,Ghardaïa,DZ
1,29.26388,0.23098,Timimoun,DZ
1,37.27442,9.87391,Bizerte,TN
1,36.81897,10.16579,Tunis,TN
1,39.5923,19.82221,Pelekas,GR
1,36.13333,-5.35,Gibraltar,GI
1,37.12734,-7.64861,Tavira,PT
1,-43.53333,172.63333,Christchurch,NZ
1,-27.53333,152.51667,Prenzlau,AU
1,1.28967,103.85007,Singapore,SG
